[
  {
    "id": 1873,
    "communeCode": 2083,
    "name": "An Hải",
    "provinceCode": 21,
    "provinceName": "thành phố Đà Nẵng",
    "type": "phường",
    "areaKm2": 7.37,
    "population": 82635,
    "administrativeCenter": "Số 289 đường Nguyễn Công Trứ, phường An Hải",
    "longitude": 108.237,
    "latitude": 16.0689,
    "previous": [
      "Phường Phước Mỹ",
      "Phường An Hải Bắc",
      "Phường An Hải Nam"
    ],
    "treeCode": "1872.1873"
  },
  {
    "id": 1874,
    "communeCode": 2065,
    "name": "An Khê",
    "provinceCode": 21,
    "provinceName": "thành phố Đà Nẵng",
    "type": "phường",
    "areaKm2": 57.44,
    "population": 50495,
    "administrativeCenter": "Số 916 đường Tôn Đản, phường An Khê",
    "longitude": 108.179,
    "latitude": 16.0367,
    "previous": [
      "Phường Hòa An",
      "Phường Hòa Phát",
      "Phường An Khê"
    ],
    "treeCode": "1872.1874"
  },
  {
    "id": 1875,
    "communeCode": 2102,
    "name": "An Thắng",
    "provinceCode": 21,
    "provinceName": "thành phố Đà Nẵng",
    "type": "phường",
    "areaKm2": 19.64,
    "population": 34176,
    "administrativeCenter": "Khối phố Phong Nhị, phường An Thắng",
    "longitude": 108.226,
    "latitude": 15.9096,
    "previous": [
      "Phường Điện An",
      "Phường Điện Thắng Nam",
      "Phường Điện Thắng Trung"
    ],
    "treeCode": "1872.1875"
  },
  {
    "id": 1876,
    "communeCode": 2096,
    "name": "Avương",
    "provinceCode": 21,
    "provinceName": "thành phố Đà Nẵng",
    "type": "xã",
    "areaKm2": 225.868,
    "population": null,
    "administrativeCenter": "đang cập nhật",
    "longitude": 107.56,
    "latitude": 15.9534,
    "previous": [
      "Xã Bhalêê",
      "Xã Avương"
    ],
    "treeCode": "1872.1876"
  },
  {
    "id": 1877,
    "communeCode": 2087,
    "name": "Bà Nà",
    "provinceCode": 21,
    "provinceName": "thành phố Đà Nẵng",
    "type": "xã",
    "areaKm2": 136.41,
    "population": 25267,
    "administrativeCenter": "Đường ĐH 2, thôn Thạch Nham Tây, xã Bà Nà",
    "longitude": 108.046,
    "latitude": 16.0369,
    "previous": [
      "Xã Hòa Ninh",
      "Xã Hòa Nhơn"
    ],
    "treeCode": "1872.1877"
  },
  {
    "id": 1878,
    "communeCode": 2117,
    "name": "Bàn Thạch",
    "provinceCode": 21,
    "provinceName": "thành phố Đà Nẵng",
    "type": "phường",
    "areaKm2": 34.77,
    "population": 368,
    "administrativeCenter": "Số 268 đường Trưng Nữ Vương, phường Bàn Thạch",
    "longitude": 108.483,
    "latitude": 15.5804,
    "previous": [
      "Phường Tân Thạnh",
      "Phường Hòa Thuận",
      "Xã Tam Thăng"
    ],
    "treeCode": "1872.1878"
  },
  {
    "id": 1879,
    "communeCode": 2113,
    "name": "Bến Giằng",
    "provinceCode": 21,
    "provinceName": "thành phố Đà Nẵng",
    "type": "xã",
    "areaKm2": 535.96,
    "population": 8277,
    "administrativeCenter": "Thôn Bến Giằng, xã Bến Giằng",
    "longitude": 107.705,
    "latitude": 15.6497,
    "previous": [
      "Xã Cà Dy",
      "Xã Tà Bhing",
      "Xã Tà Pơơ"
    ],
    "treeCode": "1872.1879"
  },
  {
    "id": 1880,
    "communeCode": 2053,
    "name": "Bến Hiên",
    "provinceCode": 21,
    "provinceName": "thành phố Đà Nẵng",
    "type": "xã",
    "areaKm2": 255.85,
    "population": 4588,
    "administrativeCenter": "Thôn AXờ, xã Bến Hiên",
    "longitude": 107.716,
    "latitude": 15.8408,
    "previous": [
      "Xã Kà Dăng",
      "Xã Mà Cooih"
    ],
    "treeCode": "1872.1880"
  },
  {
    "id": 1881,
    "communeCode": 2048,
    "name": "Cẩm Lệ",
    "provinceCode": 21,
    "provinceName": "thành phố Đà Nẵng",
    "type": "phường",
    "areaKm2": 14.05,
    "population": 78837,
    "administrativeCenter": "Số 135 đường Ông Ích Đường, phường Cẩm Lệ",
    "longitude": 108.173,
    "latitude": 16.0054,
    "previous": [
      "Phường Hòa Thọ Tây",
      "Phường Hòa Thọ Đông",
      "Phường Khuê Trung"
    ],
    "treeCode": "1872.1881"
  },
  {
    "id": 1882,
    "communeCode": 2119,
    "name": "Chiên Đàn",
    "provinceCode": 21,
    "provinceName": "thành phố Đà Nẵng",
    "type": "xã",
    "areaKm2": 48.63,
    "population": 32145,
    "administrativeCenter": "Số 01 đường Hà Đông, xã Chiên Đàn",
    "longitude": 108.394,
    "latitude": 15.5474,
    "previous": [
      "Thị trấn Phú Thịnh",
      "Xã Tam Đàn",
      "Xã Tam Thái"
    ],
    "treeCode": "1872.1882"
  },
  {
    "id": 1883,
    "communeCode": 2094,
    "name": "Đắc Pring",
    "provinceCode": 21,
    "provinceName": "thành phố Đà Nẵng",
    "type": "xã",
    "areaKm2": 412.49,
    "population": 3060,
    "administrativeCenter": "Thôn 56B, xã Đắc Pring",
    "longitude": 107.602,
    "latitude": 15.5054,
    "previous": [
      "Xã Đắc Pre",
      "Xã Đắc Pring"
    ],
    "treeCode": "1872.1883"
  },
  {
    "id": 1884,
    "communeCode": 2104,
    "name": "Đại Lộc",
    "provinceCode": 21,
    "provinceName": "thành phố Đà Nẵng",
    "type": "xã",
    "areaKm2": 73.97,
    "population": 61217,
    "administrativeCenter": "Số 15 đường Hùng Vương, xã Đại Lộc",
    "longitude": 108.103,
    "latitude": 15.899,
    "previous": [
      "Thị trấn Ái Nghĩa",
      "Xã Đại Hiệp",
      "Xã Đại Hòa",
      "Xã Đại An",
      "Xã Đại Nghĩa"
    ],
    "treeCode": "1872.1884"
  },
  {
    "id": 1885,
    "communeCode": 2111,
    "name": "Điện Bàn",
    "provinceCode": 21,
    "provinceName": "thành phố Đà Nẵng",
    "type": "phường",
    "areaKm2": 19.78,
    "population": 4127,
    "administrativeCenter": "Số 22 đường Hoàng Diệu, khối 3, phường Điện Bàn",
    "longitude": 108.275,
    "latitude": 15.8766,
    "previous": [
      "Phường Điện Phương",
      "Phường Điện Minh",
      "Phường Vĩnh Điện"
    ],
    "treeCode": "1872.1885"
  },
  {
    "id": 1886,
    "communeCode": 2109,
    "name": "Điện Bàn Bắc",
    "provinceCode": 21,
    "provinceName": "thành phố Đà Nẵng",
    "type": "phường",
    "areaKm2": 36.39,
    "population": 3078,
    "administrativeCenter": "Thôn Xóm Bùng, phường Điện Bàn Bắc",
    "longitude": 108.186,
    "latitude": 15.9381,
    "previous": [
      "Phường Điện Thắng Bắc",
      "Xã Điện Hòa",
      "Xã Điện Tiến"
    ],
    "treeCode": "1872.1886"
  },
  {
    "id": 1887,
    "communeCode": 2112,
    "name": "Điện Bàn Đông",
    "provinceCode": 21,
    "provinceName": "thành phố Đà Nẵng",
    "type": "phường",
    "areaKm2": 61.02,
    "population": 72273,
    "administrativeCenter": "Số 845 đường Trần Thủ Độ, Khối phố Quảng Lăng B",
    "longitude": 108.274,
    "latitude": 15.9309,
    "previous": [
      "Phường Điện Nam Đông",
      "Phường Điện Nam Trung",
      "Phường Điện Dương",
      "Phường Điện Ngọc",
      "Phường Điện Nam Bắc"
    ],
    "treeCode": "1872.1887"
  },
  {
    "id": 1888,
    "communeCode": 2103,
    "name": "Điện Bàn Tây",
    "provinceCode": 21,
    "provinceName": "thành phố Đà Nẵng",
    "type": "xã",
    "areaKm2": 43.31,
    "population": 44473,
    "administrativeCenter": "Thôn Phong Thử 1, xã Điện Bàn Tây",
    "longitude": 108.177,
    "latitude": 15.8864,
    "previous": [
      "Xã Điện Hồng",
      "Xã Điện Thọ",
      "Xã Điện Phước"
    ],
    "treeCode": "1872.1888"
  },
  {
    "id": 1889,
    "communeCode": 2072,
    "name": "Đồng Dương",
    "provinceCode": 21,
    "provinceName": "thành phố Đà Nẵng",
    "type": "xã",
    "areaKm2": 76.49,
    "population": 24773,
    "administrativeCenter": "Thôn Châu Lâm, xã Đồng Dương",
    "longitude": 108.284,
    "latitude": 15.644,
    "previous": [
      "Xã Bình Lãnh",
      "Xã Bình Trị",
      "Xã Bình Định"
    ],
    "treeCode": "1872.1889"
  },
  {
    "id": 1890,
    "communeCode": 2097,
    "name": "Đông Giang",
    "provinceCode": 21,
    "provinceName": "thành phố Đà Nẵng",
    "type": "xã",
    "areaKm2": 205.23,
    "population": 5131,
    "administrativeCenter": "Thôn Ngã Ba, Xã Đông Giang",
    "longitude": 107.66,
    "latitude": 15.9316,
    "previous": [
      "Thị trấn Prao",
      "Xã Tà Lu",
      "Xã A Rooi",
      "Xã Zà Hung"
    ],
    "treeCode": "1872.1890"
  },
  {
    "id": 1891,
    "communeCode": 2080,
    "name": "Đức Phú",
    "provinceCode": 21,
    "provinceName": "thành phố Đà Nẵng",
    "type": "xã",
    "areaKm2": 108.97,
    "population": 924,
    "administrativeCenter": "Thôn Thuận Yên Đông, xã Đức Phú",
    "longitude": 108.504,
    "latitude": 15.4397,
    "previous": [
      "Xã Tam Sơn",
      "Xã Tam Thạnh"
    ],
    "treeCode": "1872.1891"
  },
  {
    "id": 1892,
    "communeCode": 2057,
    "name": "Duy Nghĩa",
    "provinceCode": 21,
    "provinceName": "thành phố Đà Nẵng",
    "type": "xã",
    "areaKm2": 35.36,
    "population": 32143,
    "administrativeCenter": "Thôn Thuận An, xã Duy Nghĩa",
    "longitude": 108.367,
    "latitude": 15.8393,
    "previous": [
      "Xã Duy Thành",
      "Xã Duy Hải",
      "Xã Duy Nghĩa"
    ],
    "treeCode": "1872.1892"
  },
  {
    "id": 1893,
    "communeCode": 2100,
    "name": "Duy Xuyên",
    "provinceCode": 21,
    "provinceName": "thành phố Đà Nẵng",
    "type": "xã",
    "areaKm2": 125.78,
    "population": 32243,
    "administrativeCenter": "Thôn An Hòa, xã Duy Xuyên",
    "longitude": 108.202,
    "latitude": 15.7819,
    "previous": [
      "Xã Duy Trung",
      "Xã Duy Sơn",
      "Xã Duy Trinh"
    ],
    "treeCode": "1872.1893"
  },
  {
    "id": 1894,
    "communeCode": 2101,
    "name": "Gò Nổi",
    "provinceCode": 21,
    "provinceName": "thành phố Đà Nẵng",
    "type": "xã",
    "areaKm2": 36.2,
    "population": 29968,
    "administrativeCenter": "Thôn Đông Lãnh, xã Gò Nổi",
    "longitude": 108.207,
    "latitude": 15.8533,
    "previous": [
      "Xã Điện Phong",
      "Xã Điện Trung",
      "Xã Điện Quang"
    ],
    "treeCode": "1872.1894"
  },
  {
    "id": 1895,
    "communeCode": 2052,
    "name": "Hà Nha",
    "provinceCode": 21,
    "provinceName": "thành phố Đà Nẵng",
    "type": "xã",
    "areaKm2": 132.69,
    "population": 38199,
    "administrativeCenter": "Thôn Hà Nha, xã Hà Nha",
    "longitude": 107.991,
    "latitude": 15.8633,
    "previous": [
      "Xã Đại Đồng",
      "Xã Đại Hồng",
      "Xã Đại Quang"
    ],
    "treeCode": "1872.1895"
  },
  {
    "id": 1896,
    "communeCode": 2069,
    "name": "Hải Châu",
    "provinceCode": 21,
    "provinceName": "thành phố Đà Nẵng",
    "type": "phường",
    "areaKm2": 7.58,
    "population": 131427,
    "administrativeCenter": "Số 15 đường Lê Hồng Phong, phường Hải Châu",
    "longitude": 108.218,
    "latitude": 16.0762,
    "previous": [
      "Phường Thanh Bình",
      "Phường Thuận Phước",
      "Phường Thạch Thang",
      "Phường Phước Ninh",
      "Phường Hải Châu"
    ],
    "treeCode": "1872.1896"
  },
  {
    "id": 1897,
    "communeCode": 2086,
    "name": "Hải Vân",
    "provinceCode": 21,
    "provinceName": "thành phố Đà Nẵng",
    "type": "phường",
    "areaKm2": 406.09,
    "population": 48992,
    "administrativeCenter": "Lô 1-2 đường Nguyễn Tất Thành, phường Hải Vân",
    "longitude": 107.972,
    "latitude": 16.1315,
    "previous": [
      "Phường Hòa Hiệp Bắc",
      "Phường Hòa Hiệp Nam",
      "Xã Hòa Bắc",
      "Xã Hòa Liên"
    ],
    "treeCode": "1872.1897"
  },
  {
    "id": 1898,
    "communeCode": 2070,
    "name": "Hiệp Đức",
    "provinceCode": 21,
    "provinceName": "thành phố Đà Nẵng",
    "type": "xã",
    "areaKm2": 46,
    "population": 35734,
    "administrativeCenter": "Số 125, đường Hùng Vương, xã Hiệp Đức",
    "longitude": 108.052,
    "latitude": 15.587,
    "previous": [
      "Thị trấn Tân Bình",
      "Xã Quế Tân",
      "Xã Quế Lưu"
    ],
    "treeCode": "1872.1898"
  },
  {
    "id": 1899,
    "communeCode": 2062,
    "name": "Hòa Cường",
    "provinceCode": 21,
    "provinceName": "thành phố Đà Nẵng",
    "type": "phường",
    "areaKm2": 15.72,
    "population": 119363,
    "administrativeCenter": "Số 338 đường Núi Thành, phường Hòa Cường",
    "longitude": 108.212,
    "latitude": 16.0458,
    "previous": [
      "Phường Bình Thuận",
      "Phường Hòa Thuận Tây",
      "Phường Hòa Cường Bắc",
      "Phường Hòa Cường Nam"
    ],
    "treeCode": "1872.1899"
  },
  {
    "id": 1900,
    "communeCode": 2066,
    "name": "Hòa Khánh",
    "provinceCode": 21,
    "provinceName": "thành phố Đà Nẵng",
    "type": "phường",
    "areaKm2": 40.93,
    "population": 112518,
    "administrativeCenter": "Số 168 đường Nguyễn Sinh Sắc, phường Hòa Khánh",
    "longitude": 108.131,
    "latitude": 16.0471,
    "previous": [
      "Phường Hòa Khánh Nam",
      "Phường Hòa Minh",
      "Xã Hòa Sơn"
    ],
    "treeCode": "1872.1900"
  },
  {
    "id": 1901,
    "communeCode": 2088,
    "name": "Hòa Tiến",
    "provinceCode": 21,
    "provinceName": "thành phố Đà Nẵng",
    "type": "xã",
    "areaKm2": 65.9,
    "population": 38823,
    "administrativeCenter": "Thôn Phú Sơn Tây (Quốc lộ 14B), xã Hòa Tiến",
    "longitude": 108.1,
    "latitude": 15.9566,
    "previous": [
      "Xã Hòa Khương",
      "Xã Hòa Tiến"
    ],
    "treeCode": "1872.1901"
  },
  {
    "id": 1902,
    "communeCode": 2046,
    "name": "Hòa Vang",
    "provinceCode": 21,
    "provinceName": "thành phố Đà Nẵng",
    "type": "xã",
    "areaKm2": 107.61,
    "population": 26712,
    "administrativeCenter": "Thôn Dương Lâm 1, xã Hòa Vang",
    "longitude": 108.057,
    "latitude": 15.9875,
    "previous": [
      "Xã Hòa Phong",
      "Xã Hòa Phú"
    ],
    "treeCode": "1872.1902"
  },
  {
    "id": 1903,
    "communeCode": 2049,
    "name": "Hòa Xuân",
    "provinceCode": 21,
    "provinceName": "thành phố Đà Nẵng",
    "type": "phường",
    "areaKm2": 27.96,
    "population": 8558,
    "administrativeCenter": "Số 111 đường Hoàng Ngân, phường Hòa Xuân",
    "longitude": 108.21,
    "latitude": 15.9865,
    "previous": [
      "Phường Hòa Xuân",
      "Xã Hòa Châu",
      "Xã Hòa Phước"
    ],
    "treeCode": "1872.1903"
  },
  {
    "id": 1904,
    "communeCode": 3312,
    "name": "Hoàng Sa",
    "provinceCode": 21,
    "provinceName": "thành phố Đà Nẵng",
    "type": "đặc khu",
    "areaKm2": 305,
    "population": 9741,
    "administrativeCenter": "Đường Hoàng Sa, phường Sơn Trà",
    "longitude": 112.135,
    "latitude": 16.568,
    "previous": [
      "Huyện Hoàng Sa"
    ],
    "treeCode": "1872.1904"
  },
  {
    "id": 1905,
    "communeCode": 2098,
    "name": "Hội An",
    "provinceCode": 21,
    "provinceName": "thành phố Đà Nẵng",
    "type": "phường",
    "areaKm2": 11.0747,
    "population": null,
    "administrativeCenter": "Số 09 đường Trần Hưng Đạo, phường Hội An",
    "longitude": 108.33,
    "latitude": 15.8697,
    "previous": [
      "Phường Minh An",
      "Phường Cẩm Phô",
      "Phường Sơn Phong",
      "Phường Cẩm Nam",
      "Xã Cẩm Kim"
    ],
    "treeCode": "1872.1905"
  },
  {
    "id": 1906,
    "communeCode": 2110,
    "name": "Hội An Đông",
    "provinceCode": 21,
    "provinceName": "thành phố Đà Nẵng",
    "type": "phường",
    "areaKm2": 18.22,
    "population": 31109,
    "administrativeCenter": "Số 456 đường Cửa Đại, phường Hội An Đông,",
    "longitude": 108.361,
    "latitude": 15.8821,
    "previous": [
      "Phường Cẩm Châu",
      "Phường Cửa Đại",
      "Xã Cẩm Thanh"
    ],
    "treeCode": "1872.1906"
  },
  {
    "id": 1907,
    "communeCode": 2108,
    "name": "Hội An Tây",
    "provinceCode": 21,
    "provinceName": "thành phố Đà Nẵng",
    "type": "phường",
    "areaKm2": 18.09,
    "population": 4237,
    "administrativeCenter": "Số 54 đường Nguyễn Công Trứ, phường Hội An Tây",
    "longitude": 108.319,
    "latitude": 15.8966,
    "previous": [
      "Phường Thanh Hà",
      "Phường Tân An",
      "Phường Cẩm An",
      "Xã Cẩm Hà"
    ],
    "treeCode": "1872.1907"
  },
  {
    "id": 1908,
    "communeCode": 2091,
    "name": "Hùng Sơn",
    "provinceCode": 21,
    "provinceName": "thành phố Đà Nẵng",
    "type": "xã",
    "areaKm2": 287.95,
    "population": 7958,
    "administrativeCenter": "Thôn Arâng, xã Hùng Sơn",
    "longitude": 107.313,
    "latitude": 15.8034,
    "previous": [
      "Xã Ch’ơm",
      "Xã Gari",
      "Xã Tr’hy",
      "Xã Axan"
    ],
    "treeCode": "1872.1908"
  },
  {
    "id": 1909,
    "communeCode": 2125,
    "name": "Hương Trà",
    "provinceCode": 21,
    "provinceName": "thành phố Đà Nẵng",
    "type": "phường",
    "areaKm2": 14.64,
    "population": 33523,
    "administrativeCenter": "Số 510 đường Hùng Vương, phường Hương Trà",
    "longitude": 108.494,
    "latitude": 15.5443,
    "previous": [
      "Phường An Sơn",
      "Phường Hòa Hương",
      "Xã Tam Ngọc"
    ],
    "treeCode": "1872.1909"
  },
  {
    "id": 1910,
    "communeCode": 2115,
    "name": "Khâm Đức",
    "provinceCode": 21,
    "provinceName": "thành phố Đà Nẵng",
    "type": "xã",
    "areaKm2": 161.98,
    "population": 9741,
    "administrativeCenter": "Số 48 đường Hồ Chí Minh, Xã Khâm Đức",
    "longitude": 107.777,
    "latitude": 15.5124,
    "previous": [
      "Thị trấn Khâm Đức",
      "Xã Phước Xuân"
    ],
    "treeCode": "1872.1910"
  },
  {
    "id": 1911,
    "communeCode": 2092,
    "name": "La Dêê",
    "provinceCode": 21,
    "provinceName": "thành phố Đà Nẵng",
    "type": "xã",
    "areaKm2": 184.81,
    "population": 293,
    "administrativeCenter": "Thôn Đắc Ốc, xã La Dêê",
    "longitude": 107.446,
    "latitude": 15.5543,
    "previous": [
      "Xã Đắc Tôi",
      "Xã La Dêê"
    ],
    "treeCode": "1872.1911"
  },
  {
    "id": 1912,
    "communeCode": 2090,
    "name": "La Êê",
    "provinceCode": 21,
    "provinceName": "thành phố Đà Nẵng",
    "type": "xã",
    "areaKm2": 243.12,
    "population": 2371,
    "administrativeCenter": "Thôn Pà Ooi, xã La Êê",
    "longitude": 107.351,
    "latitude": 15.6682,
    "previous": [
      "Xã Chơ Chun",
      "Xã La Êê"
    ],
    "treeCode": "1872.1912"
  },
  {
    "id": 1913,
    "communeCode": 2082,
    "name": "Lãnh Ngọc",
    "provinceCode": 21,
    "provinceName": "thành phố Đà Nẵng",
    "type": "xã",
    "areaKm2": 161.14,
    "population": 14847,
    "administrativeCenter": "Thôn 4, Xã Lãnh Ngọc",
    "longitude": 108.203,
    "latitude": 15.4416,
    "previous": [
      "Xã Tiên Lãnh",
      "Xã Tiên Ngọc",
      "Xã Tiên Hiệp"
    ],
    "treeCode": "1872.1913"
  },
  {
    "id": 1914,
    "communeCode": 2085,
    "name": "Liên Chiểu",
    "provinceCode": 21,
    "provinceName": "thành phố Đà Nẵng",
    "type": "phường",
    "areaKm2": 41.19,
    "population": 70628,
    "administrativeCenter": "Số 68 đường Lạc Long Quân, phường Liên Chiểu",
    "longitude": 108.092,
    "latitude": 16.0933,
    "previous": [
      "Phường Hòa Khánh Bắc",
      "Xã Hòa Liên (phần còn lại sau khi sáp nhập vào phường Hải Vân)"
    ],
    "treeCode": "1872.1914"
  },
  {
    "id": 1915,
    "communeCode": 2093,
    "name": "Nam Giang",
    "provinceCode": 21,
    "provinceName": "thành phố Đà Nẵng",
    "type": "xã",
    "areaKm2": 262.94,
    "population": 4979,
    "administrativeCenter": "Thôn A Bát, xã Chà Vàl",
    "longitude": 107.503,
    "latitude": 15.6769,
    "previous": [
      "Xã Zuôih",
      "Xã Chà Vàl"
    ],
    "treeCode": "1872.1915"
  },
  {
    "id": 1916,
    "communeCode": 2060,
    "name": "Nam Phước",
    "provinceCode": 21,
    "provinceName": "thành phố Đà Nẵng",
    "type": "xã",
    "areaKm2": 38.85,
    "population": 53498,
    "administrativeCenter": "Số 468 đường Hùng Vương, xã Nam Phước",
    "longitude": 108.277,
    "latitude": 15.8436,
    "previous": [
      "Thị trấn Nam Phước",
      "Xã Duy Phước",
      "Xã Duy Vinh"
    ],
    "treeCode": "1872.1916"
  },
  {
    "id": 1917,
    "communeCode": 2129,
    "name": "Nam Trà My",
    "provinceCode": 21,
    "provinceName": "thành phố Đà Nẵng",
    "type": "xã",
    "areaKm2": 178.31,
    "population": 7395,
    "administrativeCenter": "Thôn 1, xã Nam Trà My",
    "longitude": 108.156,
    "latitude": 15.0796,
    "previous": [
      "Xã Trà Mai",
      "Xã Trà Don"
    ],
    "treeCode": "1872.1917"
  },
  {
    "id": 1918,
    "communeCode": 2047,
    "name": "Ngũ Hành Sơn",
    "provinceCode": 21,
    "provinceName": "thành phố Đà Nẵng",
    "type": "phường",
    "areaKm2": 40.19,
    "population": 115944,
    "administrativeCenter": "Số 486 đường Lê Văn Hiến, phường Ngũ Hành Sơn",
    "longitude": 108.249,
    "latitude": 15.998,
    "previous": [
      "Phường Mỹ An",
      "Phường Khuê Mỹ",
      "Phường Hòa Hải",
      "Phường Hòa Quý"
    ],
    "treeCode": "1872.1918"
  },
  {
    "id": 1919,
    "communeCode": 2106,
    "name": "Nông Sơn",
    "provinceCode": 21,
    "provinceName": "thành phố Đà Nẵng",
    "type": "xã",
    "areaKm2": 112.53,
    "population": 21018,
    "administrativeCenter": "Thôn Trung Hạ, xã Nông Sơn",
    "longitude": 108.092,
    "latitude": 15.7076,
    "previous": [
      "Thị trấn Trung Phước",
      "Xã Quế Lộc"
    ],
    "treeCode": "1872.1919"
  },
  {
    "id": 1920,
    "communeCode": 2123,
    "name": "Núi Thành",
    "provinceCode": 21,
    "provinceName": "thành phố Đà Nẵng",
    "type": "xã",
    "areaKm2": 124.75,
    "population": 69406,
    "administrativeCenter": "Khối 3, xã Núi Thành",
    "longitude": 108.65,
    "latitude": 15.4481,
    "previous": [
      "Thị trấn Núi Thành",
      "Xã Tam Quang",
      "Xã Tam Nghĩa",
      "Xã Tam Hiệp",
      "Xã Tam Giang"
    ],
    "treeCode": "1872.1920"
  },
  {
    "id": 1921,
    "communeCode": 2077,
    "name": "Phú Ninh",
    "provinceCode": 21,
    "provinceName": "thành phố Đà Nẵng",
    "type": "xã",
    "areaKm2": 131.35,
    "population": 26954,
    "administrativeCenter": "Thôn Cây Sanh, xã Phú Ninh",
    "longitude": 108.427,
    "latitude": 15.47,
    "previous": [
      "Xã Tam Dân",
      "Xã Tam Đại",
      "Xã Tam Lãnh"
    ],
    "treeCode": "1872.1921"
  },
  {
    "id": 1922,
    "communeCode": 2107,
    "name": "Phú Thuận",
    "provinceCode": 21,
    "provinceName": "thành phố Đà Nẵng",
    "type": "xã",
    "areaKm2": 29.28,
    "population": 16883,
    "administrativeCenter": "Số 204 Đường ĐH4.ĐL, xã Phú Thuận",
    "longitude": 108.004,
    "latitude": 15.7841,
    "previous": [
      "Xã Đại Tân",
      "Xã Đại Thắng",
      "Xã Đại Chánh",
      "Xã Đại Thạnh"
    ],
    "treeCode": "1872.1922"
  },
  {
    "id": 1923,
    "communeCode": 2136,
    "name": "Phước Chánh",
    "provinceCode": 21,
    "provinceName": "thành phố Đà Nẵng",
    "type": "xã",
    "areaKm2": 107.56,
    "population": 4466,
    "administrativeCenter": "Thôn 3, xã Phước Chánh",
    "longitude": 107.802,
    "latitude": 15.3235,
    "previous": [
      "Xã Phước Công",
      "Xã Phước Chánh"
    ],
    "treeCode": "1872.1923"
  },
  {
    "id": 1924,
    "communeCode": 2064,
    "name": "Phước Hiệp",
    "provinceCode": 21,
    "provinceName": "thành phố Đà Nẵng",
    "type": "xã",
    "areaKm2": 340.05,
    "population": 4529,
    "administrativeCenter": "Thôn 1, xã Phước Hiệp",
    "longitude": 107.921,
    "latitude": 15.4671,
    "previous": [
      "Xã Phước Hòa",
      "Xã Phước Hiệp"
    ],
    "treeCode": "1872.1924"
  },
  {
    "id": 1925,
    "communeCode": 2135,
    "name": "Phước Năng",
    "provinceCode": 21,
    "provinceName": "thành phố Đà Nẵng",
    "type": "xã",
    "areaKm2": 257.1,
    "population": 8452,
    "administrativeCenter": "Thôn 2, xã Phước Năng",
    "longitude": 107.732,
    "latitude": 15.3793,
    "previous": [
      "Xã Phước Đức",
      "Xã Phước Mỹ",
      "Xã Phước Năng"
    ],
    "treeCode": "1872.1925"
  },
  {
    "id": 1926,
    "communeCode": 2134,
    "name": "Phước Thành",
    "provinceCode": 21,
    "provinceName": "thành phố Đà Nẵng",
    "type": "xã",
    "areaKm2": 123.49,
    "population": 15803,
    "administrativeCenter": "Thôn 2, xã Phước Thành",
    "longitude": 107.881,
    "latitude": 15.302,
    "previous": [
      "Xã Phước Lộc",
      "Xã Phước Kim",
      "Xã Phước Thành"
    ],
    "treeCode": "1872.1926"
  },
  {
    "id": 1927,
    "communeCode": 2068,
    "name": "Phước Trà",
    "provinceCode": 21,
    "provinceName": "thành phố Đà Nẵng",
    "type": "xã",
    "areaKm2": 196.22,
    "population": 6933,
    "administrativeCenter": "Thôn Trà Sơn, xã Phước Trà",
    "longitude": 108.059,
    "latitude": 15.4767,
    "previous": [
      "Xã Sông Trà",
      "Xã Phước Gia",
      "Xã Phước Trà"
    ],
    "treeCode": "1872.1927"
  },
  {
    "id": 1928,
    "communeCode": 2118,
    "name": "Quảng Phú",
    "provinceCode": 21,
    "provinceName": "thành phố Đà Nẵng",
    "type": "phường",
    "areaKm2": 36.21,
    "population": 29401,
    "administrativeCenter": "Khối phố Phú Thạnh, Phường Quảng Phú",
    "longitude": 108.514,
    "latitude": 15.5924,
    "previous": [
      "Phường An Phú",
      "Xã Tam Thanh",
      "Xã Tam Phú"
    ],
    "treeCode": "1872.1928"
  },
  {
    "id": 1929,
    "communeCode": 2114,
    "name": "Quế Phước",
    "provinceCode": 21,
    "provinceName": "thành phố Đà Nẵng",
    "type": "xã",
    "areaKm2": 359.11,
    "population": 14162,
    "administrativeCenter": "Thôn Bình Yên, xã Quế Phước",
    "longitude": 107.955,
    "latitude": 15.6484,
    "previous": [
      "Xã Quế Lâm",
      "Xã Phước Ninh",
      "Xã Ninh Phước"
    ],
    "treeCode": "1872.1929"
  },
  {
    "id": 1930,
    "communeCode": 2071,
    "name": "Quế Sơn",
    "provinceCode": 21,
    "provinceName": "thành phố Đà Nẵng",
    "type": "xã",
    "areaKm2": 94.1,
    "population": 34122,
    "administrativeCenter": "Số 02 đường Tôn Đức Thắng, xã Quế Sơn",
    "longitude": 108.189,
    "latitude": 15.6614,
    "previous": [
      "Thị trấn Đông Phú",
      "Xã Quế Minh",
      "Xã Quế An",
      "Xã Quế Long",
      "Xã Quế Phong"
    ],
    "treeCode": "1872.1930"
  },
  {
    "id": 1931,
    "communeCode": 2058,
    "name": "Quế Sơn Trung",
    "provinceCode": 21,
    "provinceName": "thành phố Đà Nẵng",
    "type": "xã",
    "areaKm2": 111.37,
    "population": 333,
    "administrativeCenter": "Thôn Phước Dương, xã Quế Sơn Trung",
    "longitude": 108.261,
    "latitude": 15.7212,
    "previous": [
      "Xã Quế Mỹ",
      "Xã Quế Hiệp",
      "Xã Quế Thuận",
      "Xã Quế Châu"
    ],
    "treeCode": "1872.1931"
  },
  {
    "id": 1932,
    "communeCode": 2073,
    "name": "Sơn Cẩm Hà",
    "provinceCode": 21,
    "provinceName": "thành phố Đà Nẵng",
    "type": "xã",
    "areaKm2": 118.75,
    "population": 17608,
    "administrativeCenter": "Thôn Cẩm Tây, xã Sơn Cẩm Hà",
    "longitude": 108.264,
    "latitude": 15.5412,
    "previous": [
      "Xã Tiên Sơn",
      "Xã Tiên Hà",
      "Xã Tiên Châu"
    ],
    "treeCode": "1872.1932"
  },
  {
    "id": 1933,
    "communeCode": 2084,
    "name": "Sơn Trà",
    "provinceCode": 21,
    "provinceName": "thành phố Đà Nẵng",
    "type": "phường",
    "areaKm2": 56.03,
    "population": 8689,
    "administrativeCenter": "Số 06 đường Nguyễn Phan Vinh, phường Sơn Trà",
    "longitude": 108.265,
    "latitude": 16.1191,
    "previous": [
      "Phường Thọ Quang",
      "Phường Nại Hiên Đông",
      "Phường Mân Thái"
    ],
    "treeCode": "1872.1933"
  },
  {
    "id": 1934,
    "communeCode": 2095,
    "name": "Sông Kôn",
    "provinceCode": 21,
    "provinceName": "thành phố Đà Nẵng",
    "type": "xã",
    "areaKm2": 212.94,
    "population": 8746,
    "administrativeCenter": "Thôn Ra Lang, xã Sông Kôn",
    "longitude": 107.783,
    "latitude": 15.9751,
    "previous": [
      "Xã A Ting",
      "Xã Jơ Ngây",
      "Xã Sông Kôn"
    ],
    "treeCode": "1872.1934"
  },
  {
    "id": 1935,
    "communeCode": 2050,
    "name": "Sông Vàng",
    "provinceCode": 21,
    "provinceName": "thành phố Đà Nẵng",
    "type": "xã",
    "areaKm2": 183.63,
    "population": 7024,
    "administrativeCenter": "Thôn Ban Mai, Xã Sông Vàng",
    "longitude": 107.908,
    "latitude": 15.9926,
    "previous": [
      "Xã Tư",
      "Xã Ba"
    ],
    "treeCode": "1872.1935"
  },
  {
    "id": 1936,
    "communeCode": 2121,
    "name": "Tam Anh",
    "provinceCode": 21,
    "provinceName": "thành phố Đà Nẵng",
    "type": "xã",
    "areaKm2": 68.84,
    "population": 31026,
    "administrativeCenter": "Thôn Nam Định, xã Tam Anh",
    "longitude": 108.581,
    "latitude": 15.4907,
    "previous": [
      "Xã Tam Hòa",
      "Xã Tam Anh Bắc",
      "Xã Tam Anh Nam"
    ],
    "treeCode": "1872.1936"
  },
  {
    "id": 1937,
    "communeCode": 2120,
    "name": "Tam Hải",
    "provinceCode": 21,
    "provinceName": "thành phố Đà Nẵng",
    "type": "xã",
    "areaKm2": 13.32,
    "population": 10312,
    "administrativeCenter": "thôn Tân Lập, xã Tam Hải",
    "longitude": 108.657,
    "latitude": 15.4884,
    "previous": [
      "Không sáp nhập"
    ],
    "treeCode": "1872.1937"
  },
  {
    "id": 1938,
    "communeCode": 2122,
    "name": "Tam Kỳ",
    "provinceCode": 21,
    "provinceName": "thành phố Đà Nẵng",
    "type": "phường",
    "areaKm2": 8.36,
    "population": 44075,
    "administrativeCenter": "Số 70 đường Hùng Vương, phường Tam Kỳ",
    "longitude": 108.479,
    "latitude": 15.5581,
    "previous": [
      "Phường An Mỹ",
      "Phường An Xuân",
      "Phường Trường Xuân"
    ],
    "treeCode": "1872.1938"
  },
  {
    "id": 1939,
    "communeCode": 2079,
    "name": "Tam Mỹ",
    "provinceCode": 21,
    "provinceName": "thành phố Đà Nẵng",
    "type": "xã",
    "areaKm2": 173.14,
    "population": 18064,
    "administrativeCenter": "Thôn Tịnh Sơn, xã Tam Mỹ",
    "longitude": 108.547,
    "latitude": 15.3693,
    "previous": [
      "Xã Tam Mỹ Đông",
      "Xã Tam Mỹ Tây",
      "Xã Tam Trà"
    ],
    "treeCode": "1872.1939"
  },
  {
    "id": 1940,
    "communeCode": 2124,
    "name": "Tam Xuân",
    "provinceCode": 21,
    "provinceName": "thành phố Đà Nẵng",
    "type": "xã",
    "areaKm2": 66.92,
    "population": 42834,
    "administrativeCenter": "Thôn Phú Khê, xã Tam Xuân",
    "longitude": 108.538,
    "latitude": 15.5348,
    "previous": [
      "Xã Tam Xuân I",
      "Xã Tam Xuân II",
      "Xã Tam Tiến"
    ],
    "treeCode": "1872.1940"
  },
  {
    "id": 1941,
    "communeCode": 3322,
    "name": "Tân Hiệp",
    "provinceCode": 21,
    "provinceName": "thành phố Đà Nẵng",
    "type": "xã",
    "areaKm2": 13.82,
    "population": null,
    "administrativeCenter": "Thôn Bãi Làng, xã Tân Hiệp",
    "longitude": 108.5205,
    "latitude": 15.967,
    "previous": [
      "Không sáp nhập"
    ],
    "treeCode": "1872.1941"
  },
  {
    "id": 1942,
    "communeCode": 2089,
    "name": "Tây Giang",
    "provinceCode": 21,
    "provinceName": "thành phố Đà Nẵng",
    "type": "xã",
    "areaKm2": 400.45,
    "population": 8629,
    "administrativeCenter": "Thôn Agrồng, xã Tây Giang",
    "longitude": 107.484,
    "latitude": 15.8516,
    "previous": [
      "Xã Atiêng",
      "Xã Dang",
      "Xã Anông",
      "Xã Lăng"
    ],
    "treeCode": "1872.1942"
  },
  {
    "id": 1943,
    "communeCode": 2075,
    "name": "Tây Hồ",
    "provinceCode": 21,
    "provinceName": "thành phố Đà Nẵng",
    "type": "xã",
    "areaKm2": 75.67,
    "population": 35493,
    "administrativeCenter": "Thôn Cẩm Khê, xã Tây Hồ",
    "longitude": 108.383,
    "latitude": 15.5884,
    "previous": [
      "Xã Tam An",
      "Xã Tam Thành",
      "Xã Tam Phước",
      "Xã Tam Lộc"
    ],
    "treeCode": "1872.1943"
  },
  {
    "id": 1944,
    "communeCode": 2056,
    "name": "Thăng An",
    "provinceCode": 21,
    "provinceName": "thành phố Đà Nẵng",
    "type": "xã",
    "areaKm2": 80.98,
    "population": 51988,
    "administrativeCenter": "Thôn Nam Hà, xã Thăng An",
    "longitude": 108.395,
    "latitude": 15.779,
    "previous": [
      "Xã Bình Triều",
      "Xã Bình Giang",
      "Xã Bình Đào",
      "Xã Bình Minh",
      "Xã Bình Dương"
    ],
    "treeCode": "1872.1944"
  },
  {
    "id": 1945,
    "communeCode": 2055,
    "name": "Thăng Bình",
    "provinceCode": 21,
    "provinceName": "thành phố Đà Nẵng",
    "type": "xã",
    "areaKm2": 68.91,
    "population": 54415,
    "administrativeCenter": "Số 282 đường Tiểu La, xã Thăng Bình",
    "longitude": 108.354,
    "latitude": 15.7226,
    "previous": [
      "Thị trấn Hà Lam",
      "Xã Bình Nguyên",
      "Xã Bình Quý",
      "Xã Bình Phục"
    ],
    "treeCode": "1872.1945"
  },
  {
    "id": 1946,
    "communeCode": 2116,
    "name": "Thăng Điền",
    "provinceCode": 21,
    "provinceName": "thành phố Đà Nẵng",
    "type": "xã",
    "areaKm2": 61.59,
    "population": 4228,
    "administrativeCenter": "Thôn Kế Xuyên 2, xã Thăng Điền",
    "longitude": 108.412,
    "latitude": 15.6675,
    "previous": [
      "Xã Bình An",
      "Xã Bình Trung",
      "Xã Bình Tú"
    ],
    "treeCode": "1872.1946"
  },
  {
    "id": 1947,
    "communeCode": 2076,
    "name": "Thăng Phú",
    "provinceCode": 21,
    "provinceName": "thành phố Đà Nẵng",
    "type": "xã",
    "areaKm2": 60.5,
    "population": 17266,
    "administrativeCenter": "Thôn Tú Trà, xã Thăng Phú",
    "longitude": 108.348,
    "latitude": 15.6325,
    "previous": [
      "Xã Bình Phú",
      "Xã Bình Quế"
    ],
    "treeCode": "1872.1947"
  },
  {
    "id": 1948,
    "communeCode": 2126,
    "name": "Thăng Trường",
    "provinceCode": 21,
    "provinceName": "thành phố Đà Nẵng",
    "type": "xã",
    "areaKm2": 63.79,
    "population": 24803,
    "administrativeCenter": "Thôn Bình Trúc, xã Thăng Trường",
    "longitude": 108.462,
    "latitude": 15.6811,
    "previous": [
      "Xã Bình Nam",
      "Xã Bình Hải",
      "Xã Bình Sa"
    ],
    "treeCode": "1872.1948"
  },
  {
    "id": 1949,
    "communeCode": 2061,
    "name": "Thạnh Bình",
    "provinceCode": 21,
    "provinceName": "thành phố Đà Nẵng",
    "type": "xã",
    "areaKm2": 174.92,
    "population": 30764,
    "administrativeCenter": "Thôn 5, xã Thạnh Bình",
    "longitude": 108.323,
    "latitude": 15.4388,
    "previous": [
      "Xã Tiên Lập",
      "Xã Tiên Lộc",
      "Xã Tiên An",
      "Xã Tiên Cảnh"
    ],
    "treeCode": "1872.1949"
  },
  {
    "id": 1950,
    "communeCode": 2067,
    "name": "Thanh Khê",
    "provinceCode": 21,
    "provinceName": "thành phố Đà Nẵng",
    "type": "phường",
    "areaKm2": 7.92,
    "population": 201240,
    "administrativeCenter": "Số 503 đường Trần Cao Vân, phường Thanh Khê",
    "longitude": 108.203,
    "latitude": 16.0697,
    "previous": [
      "Phường Xuân Hà",
      "Phường Chính Gián",
      "Phường Thạc Gián",
      "Phường Thanh Khê Tây",
      "Phường Thanh Khê Đông"
    ],
    "treeCode": "1872.1950"
  },
  {
    "id": 1951,
    "communeCode": 2054,
    "name": "Thạnh Mỹ",
    "provinceCode": 21,
    "provinceName": "thành phố Đà Nẵng",
    "type": "xã",
    "areaKm2": 207.28,
    "population": 9072,
    "administrativeCenter": "Thôn Mực, xã Thạnh Mỹ",
    "longitude": 107.77,
    "latitude": 15.776,
    "previous": [
      "Thị trấn Thạnh Mỹ"
    ],
    "treeCode": "1872.1951"
  },
  {
    "id": 1952,
    "communeCode": 2099,
    "name": "Thu Bồn",
    "provinceCode": 21,
    "provinceName": "thành phố Đà Nẵng",
    "type": "xã",
    "areaKm2": 108.77,
    "population": 36909,
    "administrativeCenter": "Thôn Phú Lạc, xã Thu Bồn",
    "longitude": 108.112,
    "latitude": 15.7926,
    "previous": [
      "Xã Duy Châu",
      "Xã Duy Hoà",
      "Xã Duy Phú",
      "Xã Duy Tân"
    ],
    "treeCode": "1872.1952"
  },
  {
    "id": 1953,
    "communeCode": 2051,
    "name": "Thượng Đức",
    "provinceCode": 21,
    "provinceName": "thành phố Đà Nẵng",
    "type": "xã",
    "areaKm2": 216.37,
    "population": 2252,
    "administrativeCenter": "Thôn Tân Hà, xã Thượng Đức",
    "longitude": 107.89,
    "latitude": 15.8463,
    "previous": [
      "Xã Đại Lãnh",
      "Xã Đại Hưng",
      "Xã Đại Sơn"
    ],
    "treeCode": "1872.1953"
  },
  {
    "id": 1954,
    "communeCode": 2074,
    "name": "Tiên Phước",
    "provinceCode": 21,
    "provinceName": "thành phố Đà Nẵng",
    "type": "xã",
    "areaKm2": 74.63,
    "population": 28137,
    "administrativeCenter": "Số 81 đường Huỳnh Thúc Kháng, xã Tiên Phước",
    "longitude": 108.345,
    "latitude": 15.5043,
    "previous": [
      "Thị trấn Tiên Kỳ",
      "Xã Tiên Mỹ",
      "Xã Tiên Phong",
      "Xã Tiên Thọ"
    ],
    "treeCode": "1872.1954"
  },
  {
    "id": 1955,
    "communeCode": 2063,
    "name": "Trà Đốc",
    "provinceCode": 21,
    "provinceName": "thành phố Đà Nẵng",
    "type": "xã",
    "areaKm2": 233.61,
    "population": 10475,
    "administrativeCenter": "Thôn 2, xã Trà Đốc",
    "longitude": 108.068,
    "latitude": 15.3532,
    "previous": [
      "Xã Trà Bui",
      "Xã Trà Đốc"
    ],
    "treeCode": "1872.1955"
  },
  {
    "id": 1956,
    "communeCode": 2127,
    "name": "Trà Giáp",
    "provinceCode": 21,
    "provinceName": "thành phố Đà Nẵng",
    "type": "xã",
    "areaKm2": 121.55,
    "population": 5939,
    "administrativeCenter": "Thôn 2, xã Trà Giáp",
    "longitude": 108.258,
    "latitude": 15.1964,
    "previous": [
      "Xã Trà Ka",
      "Xã Trà Giáp"
    ],
    "treeCode": "1872.1956"
  },
  {
    "id": 1957,
    "communeCode": 2133,
    "name": "Trà Leng",
    "provinceCode": 21,
    "provinceName": "thành phố Đà Nẵng",
    "type": "xã",
    "areaKm2": 221.15,
    "population": 6586,
    "administrativeCenter": "Thôn 2 xã Trà Leng",
    "longitude": 108.009,
    "latitude": 15.2399,
    "previous": [
      "Xã Trà Dơn",
      "Xã Trà Leng"
    ],
    "treeCode": "1872.1957"
  },
  {
    "id": 1958,
    "communeCode": 2078,
    "name": "Trà Liên",
    "provinceCode": 21,
    "provinceName": "thành phố Đà Nẵng",
    "type": "xã",
    "areaKm2": 178.15,
    "population": 7052,
    "administrativeCenter": "Thôn Định Yên, xã Trà Liên",
    "longitude": 108.37,
    "latitude": 15.3478,
    "previous": [
      "Xã Trà Đông",
      "Xã Trà Nú",
      "Xã Trà Kót"
    ],
    "treeCode": "1872.1958"
  },
  {
    "id": 1959,
    "communeCode": 2131,
    "name": "Trà Linh",
    "provinceCode": 21,
    "provinceName": "thành phố Đà Nẵng",
    "type": "xã",
    "areaKm2": 158.19,
    "population": 7088,
    "administrativeCenter": "Thôn 3, Xã Trà Linh",
    "longitude": 108.056,
    "latitude": 15.0158,
    "previous": [
      "Xã Trà Nam",
      "Xã Trà Linh"
    ],
    "treeCode": "1872.1959"
  },
  {
    "id": 1960,
    "communeCode": 2081,
    "name": "Trà My",
    "provinceCode": 21,
    "provinceName": "thành phố Đà Nẵng",
    "type": "xã",
    "areaKm2": 130.6,
    "population": 19956,
    "administrativeCenter": "Thôn Dương Hoà, xã Trà My",
    "longitude": 108.235,
    "latitude": 15.3491,
    "previous": [
      "Thị trấn Trà My",
      "Xã Trà Sơn",
      "Xã Trà Giang",
      "Xã Trà Dương"
    ],
    "treeCode": "1872.1960"
  },
  {
    "id": 1961,
    "communeCode": 2132,
    "name": "Trà Tân",
    "provinceCode": 21,
    "provinceName": "thành phố Đà Nẵng",
    "type": "xã",
    "areaKm2": 135.94,
    "population": 29638,
    "administrativeCenter": "Thôn 1, xã Trà Tân",
    "longitude": 108.185,
    "latitude": 15.2636,
    "previous": [
      "Xã Trà Giác",
      "Xã Trà Tân"
    ],
    "treeCode": "1872.1961"
  },
  {
    "id": 1962,
    "communeCode": 2130,
    "name": "Trà Tập",
    "provinceCode": 21,
    "provinceName": "thành phố Đà Nẵng",
    "type": "xã",
    "areaKm2": 183.17,
    "population": 8384,
    "administrativeCenter": "Thôn 1, Xã Trà Tập",
    "longitude": 108.06,
    "latitude": 15.1313,
    "previous": [
      "Xã Trà Cang",
      "Xã Trà Tập"
    ],
    "treeCode": "1872.1962"
  },
  {
    "id": 1963,
    "communeCode": 2128,
    "name": "Trà Vân",
    "provinceCode": 21,
    "provinceName": "thành phố Đà Nẵng",
    "type": "xã",
    "areaKm2": 85.58,
    "population": 5342,
    "administrativeCenter": "Thôn 2, Xã Trà Vân",
    "longitude": 108.21,
    "latitude": 15.0889,
    "previous": [
      "Xã Trà Vinh",
      "Xã Trà Vân"
    ],
    "treeCode": "1872.1963"
  },
  {
    "id": 1964,
    "communeCode": 2137,
    "name": "Việt An",
    "provinceCode": 21,
    "provinceName": "thành phố Đà Nẵng",
    "type": "xã",
    "areaKm2": 150.17,
    "population": 26196,
    "administrativeCenter": "Thôn Việt An, xã Việt An",
    "longitude": 108.172,
    "latitude": 15.5729,
    "previous": [
      "Xã Thăng Phước",
      "Xã Bình Sơn",
      "Xã Quế Thọ",
      "Xã Bình Lâm"
    ],
    "treeCode": "1872.1964"
  },
  {
    "id": 1965,
    "communeCode": 2105,
    "name": "Vu Gia",
    "provinceCode": 21,
    "provinceName": "thành phố Đà Nẵng",
    "type": "xã",
    "areaKm2": 25.12,
    "population": 27649,
    "administrativeCenter": "Thôn Lâm Yên, xã Vu Gia",
    "longitude": 108.069,
    "latitude": 15.8522,
    "previous": [
      "Xã Đại Phong",
      "Xã Đại Minh",
      "Xã Đại Cường"
    ],
    "treeCode": "1872.1965"
  },
  {
    "id": 1966,
    "communeCode": 2059,
    "name": "Xuân Phú",
    "provinceCode": 21,
    "provinceName": "thành phố Đà Nẵng",
    "type": "xã",
    "areaKm2": 55.6,
    "population": 29608,
    "administrativeCenter": "Thôn Mộc Bài, xã Xuân Phú",
    "longitude": 108.302,
    "latitude": 15.7904,
    "previous": [
      "Thị trấn Hương An",
      "Xã Quế Xuân 1",
      "Xã Quế Xuân 2",
      "Xã Quế Phú"
    ],
    "treeCode": "1872.1966"
  }
]