[
  {
    "id": 2267,
    "communeCode": 3040,
    "name": "Bình Kiến",
    "provinceCode": 25,
    "provinceName": "tỉnh Đắk Lắk",
    "type": "phường",
    "areaKm2": 73.71,
    "population": 44406,
    "administrativeCenter": "đang cập nhật",
    "longitude": 109.252,
    "latitude": 13.1366,
    "previous": [
      "Xã An Phú",
      "Xã Hòa Kiến",
      "Xã Bình Kiến",
      "Phường 9 (phần còn lại sau khi sáp nhập vào phường Tuy Hòa)"
    ],
    "treeCode": "2266.2267"
  },
  {
    "id": 2268,
    "communeCode": 2980,
    "name": "Buôn Đôn",
    "provinceCode": 25,
    "provinceName": "tỉnh Đắk Lắk",
    "type": "xã",
    "areaKm2": 1118.35,
    "population": 6582,
    "administrativeCenter": "Trụ sở UBND xã Krông Na, Trụ sở Trường Mầm non Họa My",
    "longitude": 107.679,
    "latitude": 12.9312,
    "previous": [
      "Krông Na"
    ],
    "treeCode": "2266.2268"
  },
  {
    "id": 2269,
    "communeCode": 2991,
    "name": "Buôn Hồ",
    "provinceCode": 25,
    "provinceName": "tỉnh Đắk Lắk",
    "type": "phường",
    "areaKm2": 66.54,
    "population": 6278,
    "administrativeCenter": "Trụ sở Thị ủy Buôn Hồ, Trụ sở UBND thị xã Buôn Hồ",
    "longitude": 108.251,
    "latitude": 12.8944,
    "previous": [
      "Phường Đạt Hiếu",
      "Phường An Bình",
      "Phường An Lạc",
      "Phường Thiện An",
      "Phường Thống Nhất",
      "Phường Đoàn Kết"
    ],
    "treeCode": "2266.2269"
  },
  {
    "id": 2270,
    "communeCode": 2948,
    "name": "Buôn Ma Thuột",
    "provinceCode": 25,
    "provinceName": "tỉnh Đắk Lắk",
    "type": "phường",
    "areaKm2": 71.99,
    "population": 169596,
    "administrativeCenter": "Trụ sở UBND TP Buôn Ma Thuột, Văn phòng HĐND – UBND – 27 Trường Chinh, phường Tân Lợi",
    "longitude": 108.028,
    "latitude": 12.7089,
    "previous": [
      "Phường Thành Công",
      "Phường Tân Tiến",
      "Phường Tân Thành",
      "Phường Tự An",
      "Phường Tân Lợi",
      "Xã Cư Êbur"
    ],
    "treeCode": "2266.2270"
  },
  {
    "id": 2271,
    "communeCode": 2994,
    "name": "Cư Bao",
    "provinceCode": 25,
    "provinceName": "tỉnh Đắk Lắk",
    "type": "phường",
    "areaKm2": 104.94,
    "population": 36911,
    "administrativeCenter": "Trụ sở UBND xã Cư Bao, Trụ sở UBND phường Bình Tân, Trụ sở UBND xã Bình Thuận",
    "longitude": 108.252,
    "latitude": 12.8055,
    "previous": [
      "Phường Bình Tân",
      "Xã Bình Thuận",
      "Xã Cư Bao"
    ],
    "treeCode": "2266.2271"
  },
  {
    "id": 2272,
    "communeCode": 3022,
    "name": "Cư M’gar",
    "provinceCode": 25,
    "provinceName": "tỉnh Đắk Lắk",
    "type": "xã",
    "areaKm2": 114.389,
    "population": null,
    "administrativeCenter": "Trụ sở UBND xã Ea Kpam, Trụ sở UBND xã Ea H’đing",
    "longitude": 108.069,
    "latitude": 12.8706,
    "previous": [
      "Xã Ea H’đing",
      "Xã Ea Kpam",
      "Xã Cư M’gar"
    ],
    "treeCode": "2266.2272"
  },
  {
    "id": 2273,
    "communeCode": 3004,
    "name": "Cư M’ta",
    "provinceCode": 25,
    "provinceName": "tỉnh Đắk Lắk",
    "type": "xã",
    "areaKm2": 279.421,
    "population": null,
    "administrativeCenter": "Trụ sở UBND xã Cư M’ta",
    "longitude": 108.878,
    "latitude": 12.7193,
    "previous": [
      "Xã Cư Króa",
      "Xã Cư M’ta"
    ],
    "treeCode": "2266.2273"
  },
  {
    "id": 2274,
    "communeCode": 3034,
    "name": "Cư Pơng",
    "provinceCode": 25,
    "provinceName": "tỉnh Đắk Lắk",
    "type": "xã",
    "areaKm2": 137.81,
    "population": 17687,
    "administrativeCenter": "Trụ sở UBND xã Ea Sin, Trụ sở UBND xã Cư Pơng (mới) Buôn Kbuôr",
    "longitude": 108.152,
    "latitude": 13.0432,
    "previous": [
      "Xã Ea Sin",
      "Xã Cư Pơng"
    ],
    "treeCode": "2266.2274"
  },
  {
    "id": 2275,
    "communeCode": 3037,
    "name": "Cư Prao",
    "provinceCode": 25,
    "provinceName": "tỉnh Đắk Lắk",
    "type": "xã",
    "areaKm2": 204.89,
    "population": 13765,
    "administrativeCenter": "Trụ sở UBND xã Cư Prao",
    "longitude": 108.635,
    "latitude": 12.8359,
    "previous": [
      "Xã Ea Pil",
      "Xã Cư Prao"
    ],
    "treeCode": "2266.2275"
  },
  {
    "id": 2276,
    "communeCode": 3009,
    "name": "Cư Pui",
    "provinceCode": 25,
    "provinceName": "tỉnh Đắk Lắk",
    "type": "xã",
    "areaKm2": 314.08,
    "population": 27561,
    "administrativeCenter": "Trụ sở UBND xã Hòa Phong, Trụ sở UBND xã Cư Pui",
    "longitude": 108.498,
    "latitude": 12.5467,
    "previous": [
      "Xã Hòa Phong (huyện Krông Bông)",
      "Xã Cư Pui"
    ],
    "treeCode": "2266.2276"
  },
  {
    "id": 2277,
    "communeCode": 3001,
    "name": "Cư Yang",
    "provinceCode": 25,
    "provinceName": "tỉnh Đắk Lắk",
    "type": "xã",
    "areaKm2": 149.43,
    "population": 16682,
    "administrativeCenter": "Trụ sở UBND xã Cư Bông, Trụ sở UBND xã Cư Yang",
    "longitude": 108.628,
    "latitude": 12.648,
    "previous": [
      "Xã Cư Bông",
      "Xã Cư Yang"
    ],
    "treeCode": "2266.2277"
  },
  {
    "id": 2278,
    "communeCode": 2990,
    "name": "Cuôr Đăng",
    "provinceCode": 25,
    "provinceName": "tỉnh Đắk Lắk",
    "type": "xã",
    "areaKm2": 102.84,
    "population": 28804,
    "administrativeCenter": "Trụ sở UBND xã Cuôr Đăng, Trụ sở UBND xã Ea Drơng",
    "longitude": 108.168,
    "latitude": 12.7776,
    "previous": [
      "Xã Ea Drơng",
      "Xã Cuôr Đăng"
    ],
    "treeCode": "2266.2278"
  },
  {
    "id": 2279,
    "communeCode": 3028,
    "name": "Đắk Liêng",
    "provinceCode": 25,
    "provinceName": "tỉnh Đắk Lắk",
    "type": "xã",
    "areaKm2": 135.55,
    "population": 22881,
    "administrativeCenter": "Trụ sở UBND xã Đắk Liêng, Trụ sở UBND xã Buôn Triết, Trụ sở UBND xã Buôn Tría",
    "longitude": 108.091,
    "latitude": 12.3907,
    "previous": [
      "Xã Buôn Tría",
      "Xã Buôn Triết",
      "Xã Đắk Liêng"
    ],
    "treeCode": "2266.2279"
  },
  {
    "id": 2280,
    "communeCode": 3029,
    "name": "Đắk Phơi",
    "provinceCode": 25,
    "provinceName": "tỉnh Đắk Lắk",
    "type": "xã",
    "areaKm2": 266.83,
    "population": 14726,
    "administrativeCenter": "Trụ sở UBND xã Đắk Phơi, Trụ sở UBND xã Đắk Nuê",
    "longitude": 108.202,
    "latitude": 12.3118,
    "previous": [
      "Xã Đắk Nuê",
      "Xã Đắk Phơi"
    ],
    "treeCode": "2266.2280"
  },
  {
    "id": 2281,
    "communeCode": 3008,
    "name": "Dang Kang",
    "provinceCode": 25,
    "provinceName": "tỉnh Đắk Lắk",
    "type": "xã",
    "areaKm2": 105.91,
    "population": 21301,
    "administrativeCenter": "Trụ sở UBND xã Cư Kty, Trụ sở UBND xã Dang Kang",
    "longitude": 108.319,
    "latitude": 12.5746,
    "previous": [
      "Xã Hòa Thành (huyện Krông Bông)",
      "Xã Cư Kty",
      "Xã Dang Kang"
    ],
    "treeCode": "2266.2281"
  },
  {
    "id": 2282,
    "communeCode": 3035,
    "name": "Dliê Ya",
    "provinceCode": 25,
    "provinceName": "tỉnh Đắk Lắk",
    "type": "xã",
    "areaKm2": 179.73,
    "population": 46569,
    "administrativeCenter": "đang cập nhật",
    "longitude": 108.348,
    "latitude": 13.0879,
    "previous": [
      "Xã Ea Tóh",
      "Xã Ea Tân",
      "Xã Dliê Ya"
    ],
    "treeCode": "2266.2282"
  },
  {
    "id": 2283,
    "communeCode": 3065,
    "name": "Đông Hòa",
    "provinceCode": 25,
    "provinceName": "tỉnh Đắk Lắk",
    "type": "phường",
    "areaKm2": 21.89,
    "population": 132056,
    "administrativeCenter": "Trụ sở Thị ủy Đông Hòa, Trụ sở UBND thị xã Đông Hòa",
    "longitude": 109.316,
    "latitude": 12.9607,
    "previous": [
      "Phường Hòa Vinh",
      "Phường Hòa Xuân Tây",
      "Xã Hòa Tân Đông"
    ],
    "treeCode": "2266.2283"
  },
  {
    "id": 2284,
    "communeCode": 3046,
    "name": "Đồng Xuân",
    "provinceCode": 25,
    "provinceName": "tỉnh Đắk Lắk",
    "type": "xã",
    "areaKm2": 206.26,
    "population": 26907,
    "administrativeCenter": "Trụ sở Huyện ủy Đồng Xuân, Trụ sở UBND huyện Đồng Xuân",
    "longitude": 109.094,
    "latitude": 13.391,
    "previous": [
      "Thị trấn La Hai",
      "Xã Xuân Sơn Nam",
      "Xã Xuân Sơn Bắc",
      "Xã Xuân Long",
      "Xã Xuân Quang 2"
    ],
    "treeCode": "2266.2284"
  },
  {
    "id": 2285,
    "communeCode": 3026,
    "name": "Dray Bhăng",
    "provinceCode": 25,
    "provinceName": "tỉnh Đắk Lắk",
    "type": "xã",
    "areaKm2": 101.37,
    "population": 39801,
    "administrativeCenter": "Trụ sở Huyện uỷ Cư Kuin, Trụ sở UBND huyện Cư Kuin",
    "longitude": 108.173,
    "latitude": 12.5491,
    "previous": [
      "Xã Hòa Hiệp",
      "Xã Dray Bhăng",
      "Xã Ea Bhốk"
    ],
    "treeCode": "2266.2285"
  },
  {
    "id": 2286,
    "communeCode": 3060,
    "name": "Đức Bình",
    "provinceCode": 25,
    "provinceName": "tỉnh Đắk Lắk",
    "type": "xã",
    "areaKm2": 160.36,
    "population": 15896,
    "administrativeCenter": "Trụ sở UBND xã Đức Bình Đông",
    "longitude": 108.981,
    "latitude": 12.9866,
    "previous": [
      "Xã Sơn Giang",
      "Xã Đức Bình Đông",
      "Xã Đức Bình Tây",
      "Xã Ea Bia"
    ],
    "treeCode": "2266.2286"
  },
  {
    "id": 2287,
    "communeCode": 3027,
    "name": "Dur Kmăl",
    "provinceCode": 25,
    "provinceName": "tỉnh Đắk Lắk",
    "type": "xã",
    "areaKm2": 114.49,
    "population": 12594,
    "administrativeCenter": "Trụ sở UBND xã Băng A Drênh, Trụ sở UBND xã Dur Kmăl",
    "longitude": 108.12,
    "latitude": 12.4739,
    "previous": [
      "Xã Băng A Drênh",
      "Xã Dur Kmăl"
    ],
    "treeCode": "2266.2287"
  },
  {
    "id": 2288,
    "communeCode": 3061,
    "name": "Ea Bá",
    "provinceCode": 25,
    "provinceName": "tỉnh Đắk Lắk",
    "type": "xã",
    "areaKm2": 131.79,
    "population": 8316,
    "administrativeCenter": "Trụ sở UBND xã Ea Bar",
    "longitude": 108.816,
    "latitude": 12.9721,
    "previous": [
      "Xã Ea Bá",
      "Xã Ea Bar (huyện Sông Hinh) (phần còn lại sau khi sáp nhập vào xã Ea Ly)"
    ],
    "treeCode": "2266.2288"
  },
  {
    "id": 2289,
    "communeCode": 2978,
    "name": "Ea Bung",
    "provinceCode": 25,
    "provinceName": "tỉnh Đắk Lắk",
    "type": "xã",
    "areaKm2": 390.08,
    "population": 9677,
    "administrativeCenter": "Trụ sở UBND Xã Ea Bung",
    "longitude": 107.696,
    "latitude": 13.1158,
    "previous": [
      "Xã Ya Tờ Mốt",
      "Xã Ea Bung"
    ],
    "treeCode": "2266.2289"
  },
  {
    "id": 2290,
    "communeCode": 3031,
    "name": "Ea Drăng",
    "provinceCode": 25,
    "provinceName": "tỉnh Đắk Lắk",
    "type": "xã",
    "areaKm2": 171.34,
    "population": 54475,
    "administrativeCenter": "Trụ sở UBND huyện Ea Hleo, Trung tâm hành chính công, Trụ sở Huyện ủy",
    "longitude": 108.222,
    "latitude": 13.2192,
    "previous": [
      "Thị trấn Ea Drăng",
      "Xã Ea Ral",
      "Xã Dliê Yang"
    ],
    "treeCode": "2266.2290"
  },
  {
    "id": 2291,
    "communeCode": 2993,
    "name": "Ea Drông",
    "provinceCode": 25,
    "provinceName": "tỉnh Đắk Lắk",
    "type": "xã",
    "areaKm2": 111.13,
    "population": 23951,
    "administrativeCenter": "Trụ sở UBND xã Ea Blang cũ, Trụ sở UBND xã Ea Drông, Trụ sở UBND xã Ea Siên",
    "longitude": 108.321,
    "latitude": 12.8663,
    "previous": [
      "Xã Ea Siên",
      "Xã Ea Drông"
    ],
    "treeCode": "2266.2291"
  },
  {
    "id": 2292,
    "communeCode": 2956,
    "name": "Ea H’Leo",
    "provinceCode": 25,
    "provinceName": "tỉnh Đắk Lắk",
    "type": "xã",
    "areaKm2": 338.324,
    "population": null,
    "administrativeCenter": "đang cập nhật",
    "longitude": 108.095,
    "latitude": 13.3407,
    "previous": [
      "Không sáp nhập"
    ],
    "treeCode": "2266.2292"
  },
  {
    "id": 2293,
    "communeCode": 3032,
    "name": "Ea Hiao",
    "provinceCode": 25,
    "provinceName": "tỉnh Đắk Lắk",
    "type": "xã",
    "areaKm2": 361.69,
    "population": 30796,
    "administrativeCenter": "Trụ sở UBND xã Ea Sol, Trụ sở UBND xã Ea Hiao",
    "longitude": 108.326,
    "latitude": 13.2482,
    "previous": [
      "Xã Ea Sol",
      "Xã Ea Hiao"
    ],
    "treeCode": "2266.2293"
  },
  {
    "id": 2294,
    "communeCode": 3020,
    "name": "Ea Kao",
    "provinceCode": 25,
    "provinceName": "tỉnh Đắk Lắk",
    "type": "phường",
    "areaKm2": 60.7,
    "population": 5707,
    "administrativeCenter": "Trụ sở UBND xã Ea Kao, Trụ sở UBND phường Ea Tam",
    "longitude": 108.048,
    "latitude": 12.6109,
    "previous": [
      "Phường Ea Tam",
      "Xã Ea Kao"
    ],
    "treeCode": "2266.2294"
  },
  {
    "id": 2295,
    "communeCode": 2997,
    "name": "Ea Kar",
    "provinceCode": 25,
    "provinceName": "tỉnh Đắk Lắk",
    "type": "xã",
    "areaKm2": 198.67,
    "population": 87972,
    "administrativeCenter": "Trụ sở HĐND & UBND huyện Ea Kar, Trụ sở Huyện uỷ Ea Kar, Trụ sở UBMTTQ Việt Nam",
    "longitude": 108.468,
    "latitude": 12.7996,
    "previous": [
      "Thị trấn Ea Kar",
      "Xã Cư Huê",
      "Xã Ea Đar",
      "Xã Ea Kmút",
      "Xã Cư Ni",
      "Xã Xuân Phú"
    ],
    "treeCode": "2266.2295"
  },
  {
    "id": 2296,
    "communeCode": 2958,
    "name": "Ea Khăl",
    "provinceCode": 25,
    "provinceName": "tỉnh Đắk Lắk",
    "type": "xã",
    "areaKm2": 247.05,
    "population": 29956,
    "administrativeCenter": "Trụ sở UBND xã Ea Nam, Trụ sở UBND xã Ea Khăl",
    "longitude": 108.127,
    "latitude": 13.135,
    "previous": [
      "Xã Ea Nam",
      "Xã Ea Tir",
      "Xã Ea Khăl"
    ],
    "treeCode": "2266.2296"
  },
  {
    "id": 2297,
    "communeCode": 2987,
    "name": "Ea Kiết",
    "provinceCode": 25,
    "provinceName": "tỉnh Đắk Lắk",
    "type": "xã",
    "areaKm2": 201.83,
    "population": 20177,
    "administrativeCenter": "Trụ sở UBND xã Ea Kiết, Trụ sở UBND xã Ea Kuêh",
    "longitude": 108.035,
    "latitude": 12.9926,
    "previous": [
      "Xã Ea Kuêh",
      "Xã Ea Kiết"
    ],
    "treeCode": "2266.2297"
  },
  {
    "id": 2298,
    "communeCode": 3013,
    "name": "Ea Kly",
    "provinceCode": 25,
    "provinceName": "tỉnh Đắk Lắk",
    "type": "xã",
    "areaKm2": 107.63,
    "population": 40161,
    "administrativeCenter": "Trụ sở UBND xã Krông Búk, Trụ sở UBND xã Ea Kly",
    "longitude": 108.401,
    "latitude": 12.7626,
    "previous": [
      "Xã Krông Búk",
      "Xã Ea Kly"
    ],
    "treeCode": "2266.2298"
  },
  {
    "id": 2299,
    "communeCode": 2998,
    "name": "Ea Knốp",
    "provinceCode": 25,
    "provinceName": "tỉnh Đắk Lắk",
    "type": "xã",
    "areaKm2": 448.65,
    "population": 37016,
    "administrativeCenter": "Trụ sở UBND thị trấn Ea Knốp, Trụ sở UBND xã Ea Tih, Trụ sở UBND xã Ea Sar",
    "longitude": 108.573,
    "latitude": 12.9208,
    "previous": [
      "Thị trấn Ea Knốp",
      "Xã Ea Tih",
      "Xã Ea Sô",
      "Xã Ea Sar"
    ],
    "treeCode": "2266.2299"
  },
  {
    "id": 2300,
    "communeCode": 3023,
    "name": "Ea Knuếc",
    "provinceCode": 25,
    "provinceName": "tỉnh Đắk Lắk",
    "type": "xã",
    "areaKm2": 122.39,
    "population": 43748,
    "administrativeCenter": "Trụ sở UBND xã Ea Knuếc, Trụ sở UBND xã Ea Kênh",
    "longitude": 108.21,
    "latitude": 12.6954,
    "previous": [
      "Xã Hòa Đông",
      "Xã Ea Kênh",
      "Xã Ea Knuếc"
    ],
    "treeCode": "2266.2300"
  },
  {
    "id": 2301,
    "communeCode": 3025,
    "name": "Ea Ktur",
    "provinceCode": 25,
    "provinceName": "tỉnh Đắk Lắk",
    "type": "xã",
    "areaKm2": 100.72,
    "population": 54269,
    "administrativeCenter": "Trụ sở UBND xã Ea Ktur",
    "longitude": 108.133,
    "latitude": 12.6152,
    "previous": [
      "Xã Ea Tiêu",
      "Xã Ea Ktur",
      "Xã Ea Bhốk (phần còn lại sau khi sáp nhập vào xã Dray Bhăng)"
    ],
    "treeCode": "2266.2301"
  },
  {
    "id": 2302,
    "communeCode": 3059,
    "name": "Ea Ly",
    "provinceCode": 25,
    "provinceName": "tỉnh Đắk Lắk",
    "type": "xã",
    "areaKm2": 140.35,
    "population": 12104,
    "administrativeCenter": "Trụ sở UBND xã Ea Ly",
    "longitude": 108.745,
    "latitude": 12.9885,
    "previous": [
      "Xã Ea Lâm",
      "Xã Ea Ly",
      "Xã Ea Bar (huyện Sông Hinh)"
    ],
    "treeCode": "2266.2302"
  },
  {
    "id": 2303,
    "communeCode": 2988,
    "name": "Ea M’Droh",
    "provinceCode": 25,
    "provinceName": "tỉnh Đắk Lắk",
    "type": "xã",
    "areaKm2": 135.509,
    "population": null,
    "administrativeCenter": "Trụ sở UBND xã Quảng Hiệp, Trụ sở UBND xã Ea M’Droh",
    "longitude": 107.972,
    "latitude": 12.8669,
    "previous": [
      "Xã Quảng Hiệp",
      "Xã Ea M’nang",
      "Xã Ea M’Droh"
    ],
    "treeCode": "2266.2303"
  },
  {
    "id": 2304,
    "communeCode": 2954,
    "name": "Ea Na",
    "provinceCode": 25,
    "provinceName": "tỉnh Đắk Lắk",
    "type": "xã",
    "areaKm2": 134.18,
    "population": 42164,
    "administrativeCenter": "Trụ sở UBND xã Ea Na, Trụ sở UBND xã Dray Sáp",
    "longitude": 108.005,
    "latitude": 12.5378,
    "previous": [
      "Xã Ea Bông",
      "Xã Dray Sáp",
      "Xã Ea Na"
    ],
    "treeCode": "2266.2304"
  },
  {
    "id": 2305,
    "communeCode": 3024,
    "name": "Ea Ning",
    "provinceCode": 25,
    "provinceName": "tỉnh Đắk Lắk",
    "type": "xã",
    "areaKm2": 86.21,
    "population": 34175,
    "administrativeCenter": "Trụ sở UBND Xã Cư Êwi",
    "longitude": 108.235,
    "latitude": 12.6041,
    "previous": [
      "Xã Cư Êwi",
      "Xã Ea Hu",
      "Xã Ea Ning"
    ],
    "treeCode": "2266.2305"
  },
  {
    "id": 2306,
    "communeCode": 2950,
    "name": "Ea Nuôl",
    "provinceCode": 25,
    "provinceName": "tỉnh Đắk Lắk",
    "type": "xã",
    "areaKm2": 111.74,
    "population": 43706,
    "administrativeCenter": "Trụ sở UBND xã Cuôr Knia",
    "longitude": 107.927,
    "latitude": 12.7205,
    "previous": [
      "Xã Ea Bar (huyện Buôn Đôn)",
      "Xã Cuôr Knia",
      "Xã Ea Nuôl"
    ],
    "treeCode": "2266.2306"
  },
  {
    "id": 2307,
    "communeCode": 3000,
    "name": "Ea Ô",
    "provinceCode": 25,
    "provinceName": "tỉnh Đắk Lắk",
    "type": "xã",
    "areaKm2": 137.73,
    "population": 23852,
    "administrativeCenter": "Trụ sở UBND xã Ea Ô, Trụ sở UBND xã Cư Elang cũ",
    "longitude": 108.528,
    "latitude": 12.6536,
    "previous": [
      "Xã Cư Elang",
      "Xã Ea Ô"
    ],
    "treeCode": "2266.2307"
  },
  {
    "id": 2308,
    "communeCode": 2999,
    "name": "Ea Păl",
    "provinceCode": 25,
    "provinceName": "tỉnh Đắk Lắk",
    "type": "xã",
    "areaKm2": 102.52,
    "population": 15049,
    "administrativeCenter": "Trụ sở UBND xã Ea Păl, Trụ sở UBND xã Cư Prông",
    "longitude": 108.606,
    "latitude": 12.7367,
    "previous": [
      "Xã Cư Prông",
      "Xã Ea Păl"
    ],
    "treeCode": "2266.2308"
  },
  {
    "id": 2309,
    "communeCode": 3014,
    "name": "Ea Phê",
    "provinceCode": 25,
    "provinceName": "tỉnh Đắk Lắk",
    "type": "xã",
    "areaKm2": 84.66,
    "population": 48605,
    "administrativeCenter": "Trụ sở UBND xã Ea Kuăng, Trụ sở UBND xã Ea Phê",
    "longitude": 108.364,
    "latitude": 12.726,
    "previous": [
      "Xã Ea Kuăng",
      "Xã Ea Hiu",
      "Xã Ea Phê"
    ],
    "treeCode": "2266.2309"
  },
  {
    "id": 2310,
    "communeCode": 3003,
    "name": "Ea Riêng",
    "provinceCode": 25,
    "provinceName": "tỉnh Đắk Lắk",
    "type": "xã",
    "areaKm2": 167.56,
    "population": 15719,
    "administrativeCenter": "Trụ sở UBND xã Ea Riêng, Khối đoàn thể xã Ea Riêng - Thôn 9, xã Ea Riêng",
    "longitude": 108.839,
    "latitude": 12.7989,
    "previous": [
      "Xã Ea H’Mlay",
      "Xã Ea M’Doal",
      "Xã Ea Riêng"
    ],
    "treeCode": "2266.2310"
  },
  {
    "id": 2311,
    "communeCode": 2961,
    "name": "Ea Rốk",
    "provinceCode": 25,
    "provinceName": "tỉnh Đắk Lắk",
    "type": "xã",
    "areaKm2": 544.6,
    "population": 28785,
    "administrativeCenter": "Trụ sở UBND Xã Ea Rốk",
    "longitude": 107.887,
    "latitude": 13.2669,
    "previous": [
      "Xã Ia Jlơi",
      "Xã Cư Kbang",
      "Xã Ea Rốk"
    ],
    "treeCode": "2266.2311"
  },
  {
    "id": 2312,
    "communeCode": 2959,
    "name": "Ea Súp",
    "provinceCode": 25,
    "provinceName": "tỉnh Đắk Lắk",
    "type": "xã",
    "areaKm2": 418.72,
    "population": 30762,
    "administrativeCenter": "Trụ sở HĐND & UBND huyện Ea Súp, Trụ sở Huyện ủy Ea Súp, Trung tâm hành chính công",
    "longitude": 107.877,
    "latitude": 13.0356,
    "previous": [
      "Thị trấn Ea Súp",
      "Xã Cư M’Lan",
      "Xã Ea Lê"
    ],
    "treeCode": "2266.2312"
  },
  {
    "id": 2313,
    "communeCode": 3006,
    "name": "Ea Trang",
    "provinceCode": 25,
    "provinceName": "tỉnh Đắk Lắk",
    "type": "xã",
    "areaKm2": 207.4,
    "population": 6585,
    "administrativeCenter": "Trụ sở UBND xã Ea Trang, Trạm phát lại truyền hình - xã Ea Trang",
    "longitude": 108.843,
    "latitude": 12.613,
    "previous": [
      "Không sáp nhập"
    ],
    "treeCode": "2266.2313"
  },
  {
    "id": 2314,
    "communeCode": 2989,
    "name": "Ea Tul",
    "provinceCode": 25,
    "provinceName": "tỉnh Đắk Lắk",
    "type": "xã",
    "areaKm2": 159.51,
    "population": 34876,
    "administrativeCenter": "Trụ sở UBND xã Ea Tul, Trụ sở UBND xã Ea Tar",
    "longitude": 108.148,
    "latitude": 12.9099,
    "previous": [
      "Xã Ea Tar",
      "Xã Cư Dliê Mnông",
      "Xã Ea Tul"
    ],
    "treeCode": "2266.2314"
  },
  {
    "id": 2315,
    "communeCode": 2951,
    "name": "Ea Wer",
    "provinceCode": 25,
    "provinceName": "tỉnh Đắk Lắk",
    "type": "xã",
    "areaKm2": 184.61,
    "population": 29708,
    "administrativeCenter": "Trụ sở UBND huyện Buôn Đôn, Trụ sở Huyện ủy Buôn Đôn",
    "longitude": 107.884,
    "latitude": 12.8306,
    "previous": [
      "Xã Ea Huar",
      "Xã Tân Hòa",
      "Xã Ea Wer"
    ],
    "treeCode": "2266.2315"
  },
  {
    "id": 2316,
    "communeCode": 2957,
    "name": "Ea Wy",
    "provinceCode": 25,
    "provinceName": "tỉnh Đắk Lắk",
    "type": "xã",
    "areaKm2": 213.94,
    "population": 28567,
    "administrativeCenter": "Trụ sở UBND xã Ea Wy, Trụ sở UBND xã Cư A Mung",
    "longitude": 108.061,
    "latitude": 13.213,
    "previous": [
      "Xã Cư A Mung",
      "Xã Cư Mốt",
      "Xã Ea Wy"
    ],
    "treeCode": "2266.2316"
  },
  {
    "id": 2317,
    "communeCode": 3066,
    "name": "Hòa Hiệp",
    "provinceCode": 25,
    "provinceName": "tỉnh Đắk Lắk",
    "type": "phường",
    "areaKm2": 40.81,
    "population": 53597,
    "administrativeCenter": "Trụ sở UBND phường Hòa Hiệp Trung, Trụ sở UBND phường Hòa Hiệp Nam",
    "longitude": 109.372,
    "latitude": 12.9917,
    "previous": [
      "Phường Hòa Hiệp Trung",
      "Phường Hòa Hiệp Nam",
      "Phường Hòa Hiệp Bắc (phần còn lại sau khi sáp nhập vào phường Phú Yên)"
    ],
    "treeCode": "2266.2317"
  },
  {
    "id": 2318,
    "communeCode": 3067,
    "name": "Hòa Mỹ",
    "provinceCode": 25,
    "provinceName": "tỉnh Đắk Lắk",
    "type": "xã",
    "areaKm2": 190.14,
    "population": 2653,
    "administrativeCenter": "Trụ sở UBND xã Hòa Mỹ Đông",
    "longitude": 109.158,
    "latitude": 12.8858,
    "previous": [
      "Xã Hòa Mỹ Đông",
      "Xã Hòa Mỹ Tây"
    ],
    "treeCode": "2266.2318"
  },
  {
    "id": 2319,
    "communeCode": 2949,
    "name": "Hòa Phú",
    "provinceCode": 25,
    "provinceName": "tỉnh Đắk Lắk",
    "type": "xã",
    "areaKm2": 109.07,
    "population": 48822,
    "administrativeCenter": "Trụ sở UBND xã Hòa Khánh, Trụ sở UBND xã Hòa Phú",
    "longitude": 107.958,
    "latitude": 12.6162,
    "previous": [
      "Xã Hòa Phú (thành phố Buôn Ma Thuột)",
      "Xã Hòa Xuân",
      "Xã Hòa Khánh"
    ],
    "treeCode": "2266.2319"
  },
  {
    "id": 2320,
    "communeCode": 3010,
    "name": "Hòa Sơn",
    "provinceCode": 25,
    "provinceName": "tỉnh Đắk Lắk",
    "type": "xã",
    "areaKm2": 108.55,
    "population": 25392,
    "administrativeCenter": "Trụ sở UBND xã Ea Trul, Trụ sở UBND xã Hòa Sơn",
    "longitude": 108.268,
    "latitude": 12.4897,
    "previous": [
      "Xã Yang Reh",
      "Xã Ea Trul",
      "Xã Hòa Sơn"
    ],
    "treeCode": "2266.2320"
  },
  {
    "id": 2321,
    "communeCode": 3070,
    "name": "Hòa Thịnh",
    "provinceCode": 25,
    "provinceName": "tỉnh Đắk Lắk",
    "type": "xã",
    "areaKm2": 159.23,
    "population": 30602,
    "administrativeCenter": "Trụ sở UBND xã Hòa Đồng",
    "longitude": 109.257,
    "latitude": 12.8896,
    "previous": [
      "Xã Hòa Đồng",
      "Xã Hòa Thịnh"
    ],
    "treeCode": "2266.2321"
  },
  {
    "id": 2322,
    "communeCode": 3068,
    "name": "Hòa Xuân",
    "provinceCode": 25,
    "provinceName": "tỉnh Đắk Lắk",
    "type": "xã",
    "areaKm2": 129.33,
    "population": 22962,
    "administrativeCenter": "Trụ sở UBND xã Hòa Xuân Đông",
    "longitude": 109.387,
    "latitude": 12.904,
    "previous": [
      "Xã Hòa Tâm",
      "Xã Hòa Xuân Đông",
      "Xã Hòa Xuân Nam"
    ],
    "treeCode": "2266.2322"
  },
  {
    "id": 2323,
    "communeCode": 2960,
    "name": "Ia Lốp",
    "provinceCode": 25,
    "provinceName": "tỉnh Đắk Lắk",
    "type": "xã",
    "areaKm2": 194.09,
    "population": 6502,
    "administrativeCenter": "Trụ sở UBND Xã Ia Lốp",
    "longitude": 107.732,
    "latitude": 13.3153,
    "previous": [
      "Không sáp nhập"
    ],
    "treeCode": "2266.2323"
  },
  {
    "id": 2324,
    "communeCode": 2977,
    "name": "Ia Rvê",
    "provinceCode": 25,
    "provinceName": "tỉnh Đắk Lắk",
    "type": "xã",
    "areaKm2": 217.83,
    "population": 6847,
    "administrativeCenter": "Trụ sở UBND Xã Ia Rvê",
    "longitude": 107.65,
    "latitude": 13.2245,
    "previous": [
      "Không sáp nhập"
    ],
    "treeCode": "2266.2324"
  },
  {
    "id": 2325,
    "communeCode": 3005,
    "name": "Krông Á",
    "provinceCode": 25,
    "provinceName": "tỉnh Đắk Lắk",
    "type": "xã",
    "areaKm2": 291.6,
    "population": 129,
    "administrativeCenter": "Trụ sở UBND xã Cư San",
    "longitude": 108.769,
    "latitude": 12.5446,
    "previous": [
      "Xã Cư San",
      "Xã Krông Á"
    ],
    "treeCode": "2266.2325"
  },
  {
    "id": 2326,
    "communeCode": 2953,
    "name": "Krông Ana",
    "provinceCode": 25,
    "provinceName": "tỉnh Đắk Lắk",
    "type": "xã",
    "areaKm2": 107.23,
    "population": 48491,
    "administrativeCenter": "Trụ sở Huyện ủy Krông Ana, Trụ sở HĐND và UBND huyện Krông Ana, Bộ phận một cửa HĐND-UBND huyện",
    "longitude": 108.013,
    "latitude": 12.4486,
    "previous": [
      "Thị trấn Buôn Trấp",
      "Xã Bình Hòa",
      "Xã Quảng Điền"
    ],
    "treeCode": "2266.2326"
  },
  {
    "id": 2327,
    "communeCode": 3007,
    "name": "Krông Bông",
    "provinceCode": 25,
    "provinceName": "tỉnh Đắk Lắk",
    "type": "xã",
    "areaKm2": 166.03,
    "population": 23168,
    "administrativeCenter": "Trụ sở Huyện ủy Krông Bông, Trụ sở UBND Krông Bông",
    "longitude": 108.381,
    "latitude": 12.4816,
    "previous": [
      "Thị trấn Krông Kmar",
      "Xã Hòa Lễ",
      "Xã Khuê Ngọc Điền"
    ],
    "treeCode": "2266.2327"
  },
  {
    "id": 2328,
    "communeCode": 3033,
    "name": "Krông Búk",
    "provinceCode": 25,
    "provinceName": "tỉnh Đắk Lắk",
    "type": "xã",
    "areaKm2": 134.83,
    "population": 30822,
    "administrativeCenter": "Trụ sở Huyện ủy Krông Búk, Trụ sở UBND huyện Krông Búk",
    "longitude": 108.24,
    "latitude": 13.0549,
    "previous": [
      "Xã Cư Né",
      "Xã Chứ Kbô"
    ],
    "treeCode": "2266.2328"
  },
  {
    "id": 2329,
    "communeCode": 2995,
    "name": "Krông Năng",
    "provinceCode": 25,
    "provinceName": "tỉnh Đắk Lắk",
    "type": "xã",
    "areaKm2": 98.34,
    "population": 43678,
    "administrativeCenter": "Trụ sở UBND huyện Krông Năng, Trụ sở Huyện ủy Krông Năng, Trụ sở UBMTTQ Việt Nam huyện, Khối liên cơ quan 1 (Phòng Kinh tế, Hạ tầng và Đô thị)",
    "longitude": 108.337,
    "latitude": 12.9719,
    "previous": [
      "Thị trấn Krông Năng",
      "Xã Phú Lộc",
      "Xã Ea Hồ"
    ],
    "treeCode": "2266.2329"
  },
  {
    "id": 2330,
    "communeCode": 3030,
    "name": "Krông Nô",
    "provinceCode": 25,
    "provinceName": "tỉnh Đắk Lắk",
    "type": "xã",
    "areaKm2": 159.82,
    "population": 22636,
    "administrativeCenter": "Trụ sở UBND Xã Krông Nô",
    "longitude": 108.257,
    "latitude": 12.2284,
    "previous": [
      "Không sáp nhập"
    ],
    "treeCode": "2266.2330"
  },
  {
    "id": 2331,
    "communeCode": 3012,
    "name": "Krông Pắc",
    "provinceCode": 25,
    "provinceName": "tỉnh Đắk Lắk",
    "type": "xã",
    "areaKm2": 112.52,
    "population": 68682,
    "administrativeCenter": "Trụ sở Huyện ủy Krông Pắc, Trụ sở UBND huyện Krông Pắc",
    "longitude": 108.301,
    "latitude": 12.7028,
    "previous": [
      "Thị trấn Phước An",
      "Xã Hòa An (huyện Krông Pắc)",
      "Xã Ea Yông",
      "Xã Hòa Tiến"
    ],
    "treeCode": "2266.2331"
  },
  {
    "id": 2332,
    "communeCode": 3017,
    "name": "Liên Sơn Lắk",
    "provinceCode": 25,
    "provinceName": "tỉnh Đắk Lắk",
    "type": "xã",
    "areaKm2": 398.82,
    "population": 26772,
    "administrativeCenter": "Trụ sở Huyện ủy Lắk, Trụ sở UBND huyện Lắk",
    "longitude": 108.328,
    "latitude": 12.3814,
    "previous": [
      "Thị trấn Liên Sơn",
      "Xã Yang Tao",
      "Xã Bông Krang"
    ],
    "treeCode": "2266.2332"
  },
  {
    "id": 2333,
    "communeCode": 3002,
    "name": "M’Drắk",
    "provinceCode": 25,
    "provinceName": "tỉnh Đắk Lắk",
    "type": "xã",
    "areaKm2": 151.686,
    "population": null,
    "administrativeCenter": "Trụ sở UBND huyện M’Drắk, Trụ sở Huyện ủy M’Drắk, Trụ sở nhà truyền thống huyện",
    "longitude": 108.721,
    "latitude": 12.7953,
    "previous": [
      "Thị trấn M’Drắk",
      "Xã Krông Jing",
      "Xã Ea Lai"
    ],
    "treeCode": "2266.2333"
  },
  {
    "id": 2334,
    "communeCode": 2955,
    "name": "Nam Ka",
    "provinceCode": 25,
    "provinceName": "tỉnh Đắk Lắk",
    "type": "xã",
    "areaKm2": 172.86,
    "population": 6424,
    "administrativeCenter": "Trụ sở UBND xã Ea Rbin",
    "longitude": 108.015,
    "latitude": 12.3332,
    "previous": [
      "Xã Ea Rbin",
      "Xã Nam Ka"
    ],
    "treeCode": "2266.2334"
  },
  {
    "id": 2335,
    "communeCode": 3054,
    "name": "Ô Loan",
    "provinceCode": 25,
    "provinceName": "tỉnh Đắk Lắk",
    "type": "xã",
    "areaKm2": 103.48,
    "population": 40278,
    "administrativeCenter": "Trụ sở UBND xã An Hòa Hải",
    "longitude": 109.253,
    "latitude": 13.2533,
    "previous": [
      "Xã An Hiệp",
      "Xã An Hòa Hải",
      "Xã An Cư"
    ],
    "treeCode": "2266.2335"
  },
  {
    "id": 2336,
    "communeCode": 3072,
    "name": "Phú Hòa 1",
    "provinceCode": 25,
    "provinceName": "tỉnh Đắk Lắk",
    "type": "xã",
    "areaKm2": 142.54,
    "population": 54212,
    "administrativeCenter": "Trụ sở Huyện ủy Phú Hòa, Trụ sở UBND huyện Phú Hòa",
    "longitude": 109.176,
    "latitude": 13.0296,
    "previous": [
      "Thị trấn Phú Hòa",
      "Xã Hòa Thắng (huyện Phú Hòa)",
      "Xã Hòa Định Đông",
      "Xã Hòa Định Tây",
      "Xã Hòa Hội",
      "Xã Hòa An (huyện Phú Hòa)"
    ],
    "treeCode": "2266.2336"
  },
  {
    "id": 2337,
    "communeCode": 3071,
    "name": "Phú Hòa 2",
    "provinceCode": 25,
    "provinceName": "tỉnh Đắk Lắk",
    "type": "xã",
    "areaKm2": 95.78,
    "population": 38691,
    "administrativeCenter": "Trụ sở UBND xã Hòa Quang Nam",
    "longitude": 109.193,
    "latitude": 13.097,
    "previous": [
      "Xã Hòa Quang Nam",
      "Xã Hòa Quang Bắc",
      "Xã Hòa Trị"
    ],
    "treeCode": "2266.2337"
  },
  {
    "id": 2338,
    "communeCode": 3047,
    "name": "Phú Mỡ",
    "provinceCode": 25,
    "provinceName": "tỉnh Đắk Lắk",
    "type": "xã",
    "areaKm2": 547.2,
    "population": 9007,
    "administrativeCenter": "Trụ sở UBND xã Xuân Quang 1",
    "longitude": 108.878,
    "latitude": 13.4487,
    "previous": [
      "Xã Xuân Quang 1",
      "Xã Phú Mỡ"
    ],
    "treeCode": "2266.2338"
  },
  {
    "id": 2339,
    "communeCode": 2996,
    "name": "Phú Xuân",
    "provinceCode": 25,
    "provinceName": "tỉnh Đắk Lắk",
    "type": "xã",
    "areaKm2": 140.74,
    "population": 34836,
    "administrativeCenter": "Trụ sở UBND xã Ea Dăh, Trụ sở UBND xã Phú Xuân, Trụ sở UBND xã Ea Púk",
    "longitude": 108.427,
    "latitude": 12.9064,
    "previous": [
      "Xã Ea Púk",
      "Xã Ea Dăh",
      "Xã Phú Xuân"
    ],
    "treeCode": "2266.2339"
  },
  {
    "id": 2340,
    "communeCode": 3039,
    "name": "Phú Yên",
    "provinceCode": 25,
    "provinceName": "tỉnh Đắk Lắk",
    "type": "phường",
    "areaKm2": 44.04,
    "population": 61799,
    "administrativeCenter": "Trụ sở UBND phường Phú Thạnh, Trụ sở UBND phường Phú Lâm",
    "longitude": 109.315,
    "latitude": 13.044,
    "previous": [
      "Phường Phú Đông",
      "Phường Phú Lâm",
      "Phường Phú Thạnh",
      "Xã Hòa Thành (thị xã Đông Hòa)",
      "Phường Hòa Hiệp Bắc",
      "Xã Hòa Bình 1 (phần còn lại sau khi sáp nhập vào xã Tây Hòa)"
    ],
    "treeCode": "2266.2340"
  },
  {
    "id": 2341,
    "communeCode": 2992,
    "name": "Pơng Drang",
    "provinceCode": 25,
    "provinceName": "tỉnh Đắk Lắk",
    "type": "xã",
    "areaKm2": 85.03,
    "population": 30208,
    "administrativeCenter": "Trụ sở UBND thị trấn Pơng Drang, Trụ sở UBND thị trấn Pơng Drang cũ",
    "longitude": 108.236,
    "latitude": 12.9679,
    "previous": [
      "Thị trấn Pơng Drang",
      "Xã Ea Ngai",
      "Xã Tân Lập"
    ],
    "treeCode": "2266.2341"
  },
  {
    "id": 2342,
    "communeCode": 3021,
    "name": "Quảng Phú",
    "provinceCode": 25,
    "provinceName": "tỉnh Đắk Lắk",
    "type": "xã",
    "areaKm2": 263.58,
    "population": 17573,
    "administrativeCenter": "Trụ sở UBND huyện Cư M’gar, Trụ sở UBND thị trấn Quảng Phú",
    "longitude": 108.071,
    "latitude": 12.7911,
    "previous": [
      "Thị trấn Quảng Phú",
      "Thị trấn Ea Pốk",
      "Xã Cư Suê",
      "Xã Quảng Tiến"
    ],
    "treeCode": "2266.2342"
  },
  {
    "id": 2343,
    "communeCode": 3049,
    "name": "Sơn Hòa",
    "provinceCode": 25,
    "provinceName": "tỉnh Đắk Lắk",
    "type": "xã",
    "areaKm2": 268.092,
    "population": null,
    "administrativeCenter": "Trụ sở Huyện ủy Sơn Hòa, Trụ sở UBND huyện Sơn Hòa",
    "longitude": 108.991,
    "latitude": 13.106,
    "previous": [
      "Thị trấn Củng Sơn",
      "Xã Suối Bạc",
      "Xã Sơn Hà",
      "Xã Sơn Nguyên",
      "Xã Sơn Phước"
    ],
    "treeCode": "2266.2343"
  },
  {
    "id": 2344,
    "communeCode": 3063,
    "name": "Sơn Thành",
    "provinceCode": 25,
    "provinceName": "tỉnh Đắk Lắk",
    "type": "xã",
    "areaKm2": 218.11,
    "population": 27838,
    "administrativeCenter": "Trụ sở UBND xã Sơn Thành Đông",
    "longitude": 109.083,
    "latitude": 12.9447,
    "previous": [
      "Xã Hòa Phú (huyện Tây Hòa)",
      "Xã Sơn Thành Đông",
      "Xã Sơn Thành Tây"
    ],
    "treeCode": "2266.2344"
  },
  {
    "id": 2345,
    "communeCode": 3041,
    "name": "Sông Cầu",
    "provinceCode": 25,
    "provinceName": "tỉnh Đắk Lắk",
    "type": "phường",
    "areaKm2": 90.49,
    "population": 38891,
    "administrativeCenter": "Trụ sở Thị ủy Sông Cầu, Trụ sở UBND thị xã Sông Cầu hiện nay",
    "longitude": 109.298,
    "latitude": 13.4394,
    "previous": [
      "Phường Xuân Yên",
      "Phường Xuân Phú",
      "Xã Xuân Phương",
      "Xã Xuân Thịnh"
    ],
    "treeCode": "2266.2345"
  },
  {
    "id": 2346,
    "communeCode": 3062,
    "name": "Sông Hinh",
    "provinceCode": 25,
    "provinceName": "tỉnh Đắk Lắk",
    "type": "xã",
    "areaKm2": 460.13,
    "population": 23841,
    "administrativeCenter": "Trụ sở Huyện ủy Sông Hinh, Trụ sở UBND huyện Sông Hinh",
    "longitude": 108.957,
    "latitude": 12.8622,
    "previous": [
      "Thị trấn Hai Riêng",
      "Xã Ea Trol",
      "Xã Sông Hinh",
      "Xã Ea Bia (phần còn lại sau khi sáp nhập vào xã Đức Bình)"
    ],
    "treeCode": "2266.2346"
  },
  {
    "id": 2347,
    "communeCode": 3058,
    "name": "Suối Trai",
    "provinceCode": 25,
    "provinceName": "tỉnh Đắk Lắk",
    "type": "xã",
    "areaKm2": 186.95,
    "population": 11387,
    "administrativeCenter": "đang cập nhật",
    "longitude": 108.853,
    "latitude": 13.0968,
    "previous": [
      "Xã Ea Chà Rang",
      "Xã Krông Pa",
      "Xã Suối Trai"
    ],
    "treeCode": "2266.2347"
  },
  {
    "id": 2348,
    "communeCode": 3036,
    "name": "Tam Giang",
    "provinceCode": 25,
    "provinceName": "tỉnh Đắk Lắk",
    "type": "xã",
    "areaKm2": 205.2,
    "population": 23277,
    "administrativeCenter": "Trụ sở UBND xã Ea Tam, Trụ sở UBND xã Cư Klông, Trụ sở UBND xã Tam Giang",
    "longitude": 108.438,
    "latitude": 13.044,
    "previous": [
      "Xã Ea Tam",
      "Xã Cư Klông",
      "Xã Tam Giang"
    ],
    "treeCode": "2266.2348"
  },
  {
    "id": 2349,
    "communeCode": 3019,
    "name": "Tân An",
    "provinceCode": 25,
    "provinceName": "tỉnh Đắk Lắk",
    "type": "phường",
    "areaKm2": 8.06,
    "population": 85997,
    "administrativeCenter": "Trụ sở UBND xã Ea Tu, Trụ sở UBND xã Hòa Thuận",
    "longitude": 108.11,
    "latitude": 12.7203,
    "previous": [
      "Phường Tân An",
      "Xã Ea Tu",
      "Xã Hòa Thuận"
    ],
    "treeCode": "2266.2349"
  },
  {
    "id": 2350,
    "communeCode": 3018,
    "name": "Tân Lập",
    "provinceCode": 25,
    "provinceName": "tỉnh Đắk Lắk",
    "type": "phường",
    "areaKm2": 46.7,
    "population": 73316,
    "administrativeCenter": "Trụ sở UBND phường Tân Hòa, Trụ sở UBND phường Tân Lập",
    "longitude": 108.097,
    "latitude": 12.6647,
    "previous": [
      "Phường Tân Hòa",
      "Phường Tân Lập",
      "Xã Hòa Thắng (thành phố Buôn Ma Thuột)"
    ],
    "treeCode": "2266.2350"
  },
  {
    "id": 2351,
    "communeCode": 3015,
    "name": "Tân Tiến",
    "provinceCode": 25,
    "provinceName": "tỉnh Đắk Lắk",
    "type": "xã",
    "areaKm2": 207.2,
    "population": 33994,
    "administrativeCenter": "Trụ sở UBND xã Tân Tiến, Trụ sở UBND xã Ea Uy",
    "longitude": 108.37,
    "latitude": 12.6233,
    "previous": [
      "Xã Ea Yiêng",
      "Xã Ea Uy",
      "Xã Tân Tiến"
    ],
    "treeCode": "2266.2351"
  },
  {
    "id": 2352,
    "communeCode": 3064,
    "name": "Tây Hòa",
    "provinceCode": 25,
    "provinceName": "tỉnh Đắk Lắk",
    "type": "xã",
    "areaKm2": 55.14,
    "population": 4972,
    "administrativeCenter": "Trụ sở Huyện ủy Tây Hòa, Trụ sở UBND huyện Tây Hòa",
    "longitude": 109.244,
    "latitude": 13.0019,
    "previous": [
      "Thị trấn Phú Thứ",
      "Xã Hòa Phong (huyện Tây Hòa)",
      "Xã Hòa Tân Tây",
      "Xã Hòa Bình 1"
    ],
    "treeCode": "2266.2352"
  },
  {
    "id": 2353,
    "communeCode": 3056,
    "name": "Tây Sơn",
    "provinceCode": 25,
    "provinceName": "tỉnh Đắk Lắk",
    "type": "xã",
    "areaKm2": 334.62,
    "population": 11052,
    "administrativeCenter": "Trụ sở UBND xã Sơn Hội",
    "longitude": 108.925,
    "latitude": 13.2615,
    "previous": [
      "Xã Sơn Hội",
      "Xã Cà Lúi",
      "Xã Phước Tân"
    ],
    "treeCode": "2266.2353"
  },
  {
    "id": 2354,
    "communeCode": 2935,
    "name": "Thành Nhất",
    "provinceCode": 25,
    "provinceName": "tỉnh Đắk Lắk",
    "type": "phường",
    "areaKm2": 32.22,
    "population": 52466,
    "administrativeCenter": "Trụ sở UBND phường Khánh Xuân",
    "longitude": 107.98,
    "latitude": 12.657,
    "previous": [
      "Phường Khánh Xuân",
      "Phường Thành Nhất"
    ],
    "treeCode": "2266.2354"
  },
  {
    "id": 2355,
    "communeCode": 3051,
    "name": "Tuy An Bắc",
    "provinceCode": 25,
    "provinceName": "tỉnh Đắk Lắk",
    "type": "xã",
    "areaKm2": 52.32,
    "population": 26174,
    "administrativeCenter": "Trụ sở Huyện ủy Tuy An, Trụ sở UBND huyện Tuy An",
    "longitude": 109.197,
    "latitude": 13.3173,
    "previous": [
      "Thị trấn Chí Thạnh",
      "Xã An Dân",
      "Xã An Định"
    ],
    "treeCode": "2266.2355"
  },
  {
    "id": 2356,
    "communeCode": 3052,
    "name": "Tuy An Đông",
    "provinceCode": 25,
    "provinceName": "tỉnh Đắk Lắk",
    "type": "xã",
    "areaKm2": 46.05,
    "population": 40108,
    "administrativeCenter": "Trụ sở UBND xã An Ninh Tây",
    "longitude": 109.259,
    "latitude": 13.3321,
    "previous": [
      "Xã An Ninh Đông",
      "Xã An Ninh Tây",
      "Xã An Thạch"
    ],
    "treeCode": "2266.2356"
  },
  {
    "id": 2357,
    "communeCode": 3055,
    "name": "Tuy An Nam",
    "provinceCode": 25,
    "provinceName": "tỉnh Đắk Lắk",
    "type": "xã",
    "areaKm2": 69.99,
    "population": 29805,
    "administrativeCenter": "Trụ sở UBND xã An Mỹ",
    "longitude": 109.231,
    "latitude": 13.1833,
    "previous": [
      "Xã An Thọ",
      "Xã An Mỹ",
      "Xã An Chấn"
    ],
    "treeCode": "2266.2357"
  },
  {
    "id": 2358,
    "communeCode": 3053,
    "name": "Tuy An Tây",
    "provinceCode": 25,
    "provinceName": "tỉnh Đắk Lắk",
    "type": "xã",
    "areaKm2": 136.2,
    "population": 12913,
    "administrativeCenter": "Trụ sở UBND xã An Nghiệp",
    "longitude": 109.152,
    "latitude": 13.2501,
    "previous": [
      "Xã An Nghiệp",
      "Xã An Xuân",
      "Xã An Lĩnh"
    ],
    "treeCode": "2266.2358"
  },
  {
    "id": 2359,
    "communeCode": 3038,
    "name": "Tuy Hòa",
    "provinceCode": 25,
    "provinceName": "tỉnh Đắk Lắk",
    "type": "phường",
    "areaKm2": 33.77,
    "population": 126118,
    "administrativeCenter": "Trụ sở Thành ủy Tuy Hòa, Trụ sở UBND thành phố Tuy Hòa",
    "longitude": 109.289,
    "latitude": 13.0799,
    "previous": [
      "Phường 1",
      "Phường 2",
      "Phường 4",
      "Phường 5",
      "Phường 7",
      "Phường 9",
      "Xã Hòa An (huyện Phú Hòa) (phần còn lại sau khi sáp nhập vào xã Phú Hòa 1)",
      "Xã Hòa Trị (phần còn lại sau khi sáp nhập vào xã Phú Hòa 2)"
    ],
    "treeCode": "2266.2359"
  },
  {
    "id": 2360,
    "communeCode": 3057,
    "name": "Vân Hòa",
    "provinceCode": 25,
    "provinceName": "tỉnh Đắk Lắk",
    "type": "xã",
    "areaKm2": 151.47,
    "population": 6661,
    "administrativeCenter": "Trụ sở UBND xã Sơn Long",
    "longitude": 109.082,
    "latitude": 13.181,
    "previous": [
      "Xã Sơn Long",
      "Xã Sơn Xuân",
      "Xã Sơn Định"
    ],
    "treeCode": "2266.2360"
  },
  {
    "id": 2361,
    "communeCode": 3016,
    "name": "Vụ Bổn",
    "provinceCode": 25,
    "provinceName": "tỉnh Đắk Lắk",
    "type": "xã",
    "areaKm2": 109.13,
    "population": 18111,
    "administrativeCenter": "Trụ sở UBND xã Vụ Bổn",
    "longitude": 108.446,
    "latitude": 12.6243,
    "previous": [
      "Không sáp nhập"
    ],
    "treeCode": "2266.2361"
  },
  {
    "id": 2362,
    "communeCode": 3044,
    "name": "Xuân Cảnh",
    "provinceCode": 25,
    "provinceName": "tỉnh Đắk Lắk",
    "type": "xã",
    "areaKm2": 83.81,
    "population": 23972,
    "administrativeCenter": "Trụ sở UBND xã Xuân Cảnh",
    "longitude": 109.223,
    "latitude": 13.5584,
    "previous": [
      "Xã Xuân Bình",
      "Xã Xuân Cảnh"
    ],
    "treeCode": "2266.2362"
  },
  {
    "id": 2363,
    "communeCode": 3045,
    "name": "Xuân Đài",
    "provinceCode": 25,
    "provinceName": "tỉnh Đắk Lắk",
    "type": "phường",
    "areaKm2": 13.4,
    "population": 21574,
    "administrativeCenter": "Trụ sở UBND phường Xuân Đài",
    "longitude": 109.222,
    "latitude": 13.3871,
    "previous": [
      "Phường Xuân Thành",
      "Phường Xuân Đài"
    ],
    "treeCode": "2266.2363"
  },
  {
    "id": 2364,
    "communeCode": 3048,
    "name": "Xuân Lãnh",
    "provinceCode": 25,
    "provinceName": "tỉnh Đắk Lắk",
    "type": "xã",
    "areaKm2": 174.65,
    "population": 15933,
    "administrativeCenter": "Trụ sở UBND xã Xuân Lãnh",
    "longitude": 109.04,
    "latitude": 13.5003,
    "previous": [
      "Xã Đa Lộc",
      "Xã Xuân Lãnh"
    ],
    "treeCode": "2266.2364"
  },
  {
    "id": 2365,
    "communeCode": 3043,
    "name": "Xuân Lộc",
    "provinceCode": 25,
    "provinceName": "tỉnh Đắk Lắk",
    "type": "xã",
    "areaKm2": 140.5,
    "population": 104304,
    "administrativeCenter": "Trụ sở UBND xã Xuân Lộc",
    "longitude": 109.185,
    "latitude": 13.6282,
    "previous": [
      "Xã Xuân Hải",
      "Xã Xuân Lộc"
    ],
    "treeCode": "2266.2365"
  },
  {
    "id": 2366,
    "communeCode": 3050,
    "name": "Xuân Phước",
    "provinceCode": 25,
    "provinceName": "tỉnh Đắk Lắk",
    "type": "xã",
    "areaKm2": 102.81,
    "population": 16197,
    "administrativeCenter": "Trụ sở UBND xã Xuân Phước",
    "longitude": 109.066,
    "latitude": 13.2968,
    "previous": [
      "Xã Xuân Quang 3",
      "Xã Xuân Phước"
    ],
    "treeCode": "2266.2366"
  },
  {
    "id": 2367,
    "communeCode": 3042,
    "name": "Xuân Thọ",
    "provinceCode": 25,
    "provinceName": "tỉnh Đắk Lắk",
    "type": "xã",
    "areaKm2": 192.12,
    "population": 10793,
    "administrativeCenter": "Trụ sở UBND xã Xuân Thọ 1",
    "longitude": 109.161,
    "latitude": 13.4754,
    "previous": [
      "Xã Xuân Lâm",
      "Xã Xuân Thọ 1",
      "Xã Xuân Thọ 2"
    ],
    "treeCode": "2266.2367"
  },
  {
    "id": 2368,
    "communeCode": 3011,
    "name": "Yang Mao",
    "provinceCode": 25,
    "provinceName": "tỉnh Đắk Lắk",
    "type": "xã",
    "areaKm2": 562.38,
    "population": 1697,
    "administrativeCenter": "Trụ sở UBND xã Cư Đrăm, Trụ sở UBND xã Yang Mao",
    "longitude": 108.589,
    "latitude": 12.4056,
    "previous": [
      "Xã Cư Drăm",
      "Xã Yang Mao"
    ],
    "treeCode": "2266.2368"
  }
]